placeID,placeName,placeType,latitude,longitude
0,ALDI,supermarket,44.96262780000001,-93.2555884
1,Wedge Community Co-op,supermarket,44.961351,-93.28761899999999
2,Family Dollar,supermarket,44.96483209999999,-93.2783111
3,Shuang Hur Supermarket Minneapolis,supermarket,44.9533048,-93.27825999999999
4,Super Mercado Morelia,supermarket,44.9481762,-93.2541646
5,Good Grocer,supermarket,44.9540281,-93.2783286
6,La Loteria Market,supermarket,44.9481671,-93.2705043
7,COLONIAL MARKET AND RESTAURANT,supermarket,44.95238699999999,-93.2780818
8,Sunshine Foods,supermarket,44.9430524,-93.27035939999999
9,Net Supermarket,supermarket,44.9640895,-93.2775508
10,Lj MultiServices LLC “LG travel”,supermarket,44.948101,-93.2846788
11,ALDI,supermarket,44.955366,-93.28762390000001
12,Oak Grove Grocery,supermarket,44.9666734,-93.2818889
13,East Village Market,supermarket,44.9681527,-93.25796679999999
14,Whole Foods Market,supermarket,44.9828273,-93.26945520000001
15,Lunds & Byerlys Downtown Minneapolis,supermarket,44.97456200000001,-93.2804872
18,Downtown Market & Deli,supermarket,44.9818298,-93.26465669999999
19,Target Grocery,supermarket,44.974929,-93.274424
21,Trader Joe's,supermarket,44.97701989999999,-93.25766960000001
22,Minneapolis College Store,supermarket,44.9732682,-93.283585
25,Seward Community Co-op - Franklin Store,supermarket,44.9624624,-93.23027719999999
29,West Bank Grocery,supermarket,44.9693608,-93.247106
33,Target Grocery,supermarket,44.9818047,-93.2351398
38,Walmart Supercenter,supermarket,45.0562708,-93.31626039999999
39,Sun Foods,supermarket,45.0704534,-93.3258716
40,Cub - Brooklyn Center,supermarket,45.0586169,-93.3235011
41,North Market,supermarket,45.0357642,-93.29812299999999
42,Family Dollar,supermarket,45.0580879,-93.3070826
43,Walmart,supermarket,45.05690750000001,-93.3188101
45,Cub - Minneapolis Lake Street,supermarket,44.9514414,-93.2358036
48,ALDI,supermarket,44.9485482,-93.2418215
68,Cub - Minneapolis Northside,supermarket,44.9981928,-93.2886618
69,Sentyrz Liquor & Supermarket,supermarket,45.00488259999999,-93.2664514
72,Family Dollar,supermarket,44.99986559999999,-93.2917428
82,ALDI,supermarket,45.0127119,-93.3078329
83,Family Dollar,supermarket,45.0116451,-93.30788679999999
86,So Low Grocery Outlet,supermarket,45.0125089,-93.2946731
89,Jordan Grocery & Deli,supermarket,45.01306899999999,-93.29846099999999
90,E And L Supermarket And Deli,supermarket,45.01328459999999,-93.2941616
103,De Venta Aqui,supermarket,45.01131040000001,-93.2475613
114,Lunds & Byerlys Highland Park,supermarket,44.9169748,-93.19089799999999
115,Longfellow Market,supermarket,44.9480812,-93.2169686
116,Widmer's Super Market,supermarket,44.934096,-93.182081
117,Northerly Flora,supermarket,44.93081,-93.212548
118,Cub - Minneapolis Minnehaha,supermarket,44.9188599,-93.21588469999999
119,ALDI,supermarket,44.9495762,-93.232439
120,Target Grocery,supermarket,44.9494431,-93.2371514
121,Oxendale's Market Minneapolis,supermarket,44.91138889999999,-93.2225
122,Supermercado La Morenita,supermarket,44.9409243,-93.2475668
127,Family Dollar,supermarket,44.9299654,-93.2532554
133,Cub - Minneapolis Uptown,supermarket,44.9497656,-93.29381169999999
134,Target Grocery,supermarket,44.9487059,-93.2961728
140,Cub - Minneapolis Nicollet,supermarket,44.8951649,-93.277217
141,ALDI,supermarket,44.8887647,-93.3094045
142,Kowalski's Market,supermarket,44.9055744,-93.28806159999999
143,Lunds & Byerlys Richfield,supermarket,44.8892177,-93.3095151
144,Kowalski's Market,supermarket,44.900955,-93.262329
145,Rong Market,supermarket,44.88473390000001,-93.2773366
155,Cub - St. Anthony,supermarket,45.0404346,-93.2215296
156,Cub - Minneapolis Quarry,supermarket,45.00495,-93.2324964
158,Cub Pharmacy,supermarket,45.039828,-93.22155099999999
160,Target Grocery,supermarket,45.0052279,-93.2293574
161,Family Dollar,supermarket,45.0418349,-93.24616499999999
168,Kowalski's Market,supermarket,44.9581194,-93.29599639999999
186,Metro star produce,supermarket,44.9870301,-93.20622519999999
188,Fresh Thyme Market,supermarket,44.9710453,-93.2141142
217,Hampden Park Co-Op,supermarket,44.9691291,-93.19772309999999
250,Trader Joe's,supermarket,44.93459199999999,-93.33739899999999
252,Lunds & Byerlys 50th Street Edina,supermarket,44.91164709999999,-93.3308058
255,Jerry's Foods,supermarket,44.909917,-93.3547473
256,Industrial Warehouse,supermarket,44.931814,-93.3288268
324,Lunds & Byerlys St. Louis Park,supermarket,44.93492370000001,-93.34721449999999
325,Whole Foods Market,supermarket,44.9477203,-93.3221851
327,Lunds & Byerlys Uptown Minneapolis,supermarket,44.9485336,-93.30020569999999
329,Fresh Thyme Market,supermarket,44.9327468,-93.3427099
330,Target Grocery,supermarket,44.9371388,-93.3462184
372,La Vaquita - Shortstop Superette,supermarket,44.875031,-93.24839019999999
373,Target Grocery,supermarket,44.8855423,-93.24846289999999
521,Cub - Crystal,supermarket,45.01959249999999,-93.347258
525,Cub Pharmacy,supermarket,45.01955580000001,-93.3464286
622,Cub - St. Louis Park,supermarket,44.9682215,-93.3489584
691,Cub - Edina Southdale,supermarket,44.88037229999999,-93.31984519999999
699,Target Grocery,supermarket,44.8756361,-93.32409709999999
790,Mike's Discount Foods,supermarket,45.05052020000001,-93.24842149999999
885,Shanghai Market Inc,supermarket,44.9771656,-93.165542
889,SHEGER MARKET,supermarket,44.95680989999999,-93.16734439999999
890,Cub - Roseville Har Mar,supermarket,45.002849,-93.16272389999999
891,Cub - Roseville,supermarket,44.9934367,-93.1504588
893,Dragon Star Oriental Foods,supermarket,44.9636935,-93.12690599999999
894,ALDI,supermarket,44.9925772,-93.1491477
895,Maryland Supermarket,supermarket,44.9771205,-93.1192006
896,Family Dollar,supermarket,44.99284469999999,-93.10421640000001
898,Tiger Supermarket,supermarket,44.9681689,-93.1061082
899,Sun Foods,supermarket,44.9548539,-93.12394499999999
900,Lunds & Byerlys Downtown St. Paul,supermarket,44.95137099999999,-93.0949091
901,Double Dragon Foods,supermarket,44.978061,-93.10528599999999
902,Little Saigon Supermarket,supermarket,44.9560667,-93.1150602
903,Bymore Supermercado,supermarket,44.9671692,-93.0738167
905,Payne-Ivy Grocery,supermarket,44.9816345,-93.07342419999999
906,Wung Lee Supermarket,supermarket,44.95604100000001,-93.1146179
907,La Palma Supermercado y Cafe,supermarket,44.96136620000001,-93.07692809999999
908,Whole Foods Market,supermarket,44.9467313,-93.1666748
909,Cub - St. Paul Midway,supermarket,44.9528005,-93.1608388
910,Kowalski's Market,supermarket,44.9403567,-93.153336
912,ALDI,supermarket,44.95545730000001,-93.1485794
914,Cub Pharmacy,supermarket,44.9530533,-93.1605062
916,Target Grocery,supermarket,44.9530067,-93.1547812
917,MIDWAY HALAAL GROCERY,supermarket,44.9536009,-93.1535055
918,Trader Joe's,supermarket,44.926697,-93.1458914
921,Mississippi Market Natural Foods Co-op,supermarket,44.9183616,-93.14009089999999
926,Oxendale's Market,supermarket,44.9268642,-93.156109
933,Family Dollar,supermarket,44.9028641,-93.1705532
934,ALDI,supermarket,44.9023824,-93.17082769999999
937,Cooper's Foods,supermarket,44.9348028,-93.1168274
938,Oxendale's Market West Saint Paul,supermarket,44.91587199999999,-93.100893
939,La Monarca Supermercado,supermarket,44.92945779999999,-93.07785249999999
940,La Monarca Supermercado,supermarket,44.92956819999999,-93.07772969999999
941,Walgreens,supermarket,44.911955,-93.08159549999999
942,7th Grocery,supermarket,44.947625,-93.098563
943,SuperMex Market,supermarket,44.9099886,-93.0801065
947,Mississippi Market Natural Foods Co-op,supermarket,44.94636200000001,-93.1265686
950,Shuang Hur Supermarket,supermarket,44.9554364,-93.12814379999999
955,双和超市,supermarket,44.9553929,-93.1279663
979,Mississippi Market Natural Foods Co-op,supermarket,44.9595749,-93.0703765
1005,Cub - St. Paul Phalen,supermarket,44.9764566,-93.0448041
1006,Centromex Supermercado,supermarket,44.9616829,-93.06609200000001
1011,"Sun World Supermarket, Inc.",supermarket,44.96811659999999,-93.0643535
1012,Sun World Supermarket,supermarket,44.9681053,-93.06425259999999
1013,Hoa Mei Market & Deli,supermarket,44.97734790000001,-93.0642038
1016,ALDI,supermarket,44.97588460000001,-93.0428994
1020,Supermercado Lomabonita,supermarket,44.9654983,-93.02511679999999
1035,Target Grocery,supermarket,44.94974390000001,-93.0291443
1037,ALDI,supermarket,44.9505478,-93.0157369
1039,Ha Tien Super Market,supermarket,44.9504889,-93.0179089
1050,Kaleidoscope Children's Garden,park,44.9580946,-93.2649203
1051,City Kid Farm/ TCAC,park,44.9503821,-93.2685577
1052,Urban Permaculture Design,park,44.94343000000001,-93.2673409
1053,Phillips Park,park,44.9595141,-93.2579294
1054,Mashkiikii Gitigan,park,44.95935300000001,-93.255291
1055,Stevens Square Park,park,44.9645582,-93.2744335
1056,LaSalle Community Garden,park,44.9653204,-93.2789346
1057,Bryant Square Park,park,44.94614079999999,-93.29033520000002
1058,Elliot Park,park,44.9694819,-93.2605159
1059,Wesac,park,44.94633959999999,-93.2515269
1060,On the Plaza,park,44.9704513,-93.27464909999999
1061,Peavey Field Park,park,44.9617565,-93.2637369
1062,Washburn Fair Oaks,park,44.9599097,-93.2739016
1063,Franklin Steele Park,park,44.9670543,-93.2685348
1064,Stewart Park,park,44.9547289,-93.25892619999999
1065,Clinton Field Park,park,44.95773,-93.27086899999999
1066,East Whittier Community Garden,park,44.95354419999999,-93.27598259999999
1067,Parking for Wasie Training Center,park,44.95253,-93.261099
1068,Target Park At The MIA,park,44.958509,-93.2735347
1069,Saint Stephens and Whittier Community Garden,park,44.96013649999999,-93.27173839999999
1070,Gold Medal Park,park,44.9776218,-93.25325120000001
1071,Minneapolis Sculpture Garden,park,44.96954789999999,-93.28978029999999
1072,First Bridge Park,park,44.9845018,-93.2644566
1073,Gateway Park,park,44.9835252,-93.26667379999999
1074,The Commons,park,44.975424,-93.261657
1077,North Loop Dog Park / Off-Leash Play Area,park,44.9880121,-93.2795424
1078,Father Hennepin Bluff Park,park,44.9826286,-93.2526985
1079,Mill Ruins Park,park,44.980031,-93.25798569999999
1080,BF Nelson Park,park,44.9920749,-93.2634882
1081,Boom Island Lighthouse,park,44.9931347,-93.27178939999999
1083,Currie Park,park,44.9701564,-93.2514071
1085,Holmes Park,park,44.9873808,-93.25147020000001
1086,GGB Garden,park,44.9828231,-93.29300889999999
1087,Voyageurs National Park Association,park,44.9795223,-93.28432269999999
1088,Sumner Field Park,park,44.9872776,-93.2916267
1089,Xcel Energy Water Power Park,park,44.9831344,-93.2546667
1091,Van Cleve Park,park,44.9867905,-93.2314105
1092,East River Flats Park,park,44.9703514,-93.2350599
1093,Franklin Terrace Off-Leash Dog Park,park,44.96453580000001,-93.22782869999999
1094,Hennepin Square Office M S P Park,park,44.99169,-93.2236381
1095,The Knoll,park,44.97861210000001,-93.23643840000001
1096,Matthew’s DMV,park,44.958293,-93.231444
1101,West Bank Community Garden,park,44.97042390000001,-93.2435228
1105,Murphy Square,park,44.9652534,-93.2401514
1107,Saint Anthony Park,park,44.9936868,-93.2550309
1109,Normanna Triangle,park,44.96082000000001,-93.242778
1110,North Mississippi Regional Park,park,45.0470722,-93.2833769
1111,Victory Park,park,45.03597209999999,-93.3147564
1112,Bellvue Park,park,45.0531862,-93.2900994
1113,Jenny Lind Community Garden,park,45.0472453,-93.29351830000002
1114,Victory Flagpole,park,45.0371063,-93.31941909999999
1115,Humphrey Park,park,45.03830689999999,-93.3321071
1116,BC Little League Thurs Park,park,45.06628200000001,-93.3157252
1117,Carl W. Kroening Interpretive Center,park,45.0433063,-93.2832679
1118,Centennial Park,park,45.0698839,-93.31147109999999
1119,Twin Lake Shores Park,park,45.043752,-93.3428199
1120,Sunset Park,park,45.0262797,-93.32405879999999
1121,Kylawn Park,park,45.0647639,-93.337673
1122,Happy Hollow Park,park,45.047094,-93.3230189
1123,Victory Memorial Parkway,park,45.03642269999999,-93.3193119
1124,Victory Prairie Off-Leash Recreation Area,park,45.0403299,-93.31270819999999
1125,Webber Park,park,45.03510960000001,-93.2929747
1126,Shingle Creek Park,park,45.046622,-93.30537799999999
1127,Olson Jr High Skatepark,park,45.04552169999999,-93.3014121
1128,Creekview Park,park,45.0453349,-93.3008967
1129,Ryan Lake Trail,park,45.04186289999999,-93.3191312
1149,Riverside Park,park,44.9659625,-93.23145439999999
1151,Theodore Wirth Regional Park,park,44.9898452,-93.3268367
1152,Bryn Mawr Meadows Park,park,44.9738249,-93.30220779999999
1153,Temple Israel - Minneapolis,park,44.9595343,-93.29501049999999
1154,Wirth Lake Public Access,park,44.98179770000001,-93.3207018
1158,Bethune Park,park,44.98746729999999,-93.2967587
1159,Harrison Park,park,44.983469,-93.3002114
1161,Parade Park,park,44.97102599999999,-93.293093
1162,Farwell Park,park,44.99029900000001,-93.31269089999999
1164,Cottage Park,park,45.0006803,-93.3024162
1165,Willard Park,park,44.9963448,-93.3098332
1168,Sheridan Memorial Park,park,44.9996936,-93.2736709
1169,Satori Community Garden,park,45.0049377,-93.287511
1175,Hi-View Park,park,45.0309561,-93.2670249
1177,Heron Rookery,park,45.0194229,-93.2758961
1178,Folwell Park,park,45.0235514,-93.3002305
1182,Lind Bohanon Free Garden,park,45.043736,-93.2858388
1183,Bohanon Park,park,45.0451461,-93.29252919999999
1184,George Hill and Alice Rainville Park,park,45.0479443,-93.285489
1187,Shingle Creek Falls in Webber Park,park,45.0329,-93.28888330000001
1189,Camden Triangle Garden,park,45.0314924,-93.2981683
1196,Graeser Park - Historic Wayside Rest,park,45.037006,-93.345029
1198,Manor Park,park,45.0126645,-93.3233749
1202,Welcome Park,park,45.0382267,-93.35067219999999
1207,Tiny Fields at Northern Chocolate Studio,park,45.0353594,-93.3141727
1208,Ryan Lake Park,park,45.0405112,-93.3192478
1224,Perkins Hill Park,park,45.0173555,-93.28364069999999
1226,Swanson Field,park,45.0321648,-93.3022685
1227,Camden Central Pond,park,45.03079630000001,-93.3032453
1229,Mississippi River Park,park,45.0279445,-93.27935869999999
1230,Columbia Park,park,45.0302868,-93.2537985
1232,Bottineau Field Park,park,45.0077425,-93.2667519
1236,Logan Park,park,44.9998465,-93.2537794
1238,St. Anthony Parkway Off-Leash Dog Park,park,45.024443,-93.2575537
1240,Community Commons Park,park,44.9967889,-93.24787640000001
1241,Summer Street Garden,park,44.996813,-93.24779199999999
1244,Audubon Park,park,45.0197792,-93.2403078
1246,Windom Park,park,45.01230570000001,-93.2358635
1248,Northeast Park,park,45.0025209,-93.24182689999999
1270,Minnehaha Regional Park,park,44.9167388,-93.21010659999999
1271,Lake Hiawatha Park,park,44.9231626,-93.2337221
1273,Garden Jems Consulting,park,44.94623720000001,-93.22541430000001
1274,Longfellow Park,park,44.940543,-93.2191915
1275,Community Hops,park,44.934251,-93.2265937
1276,Corcoran Community Garden,park,44.94282559999999,-93.2368375
1277,University of St. Thomas Stewardship Garden,park,44.93834519999999,-93.1961651
1278,Stonebridge Oval,park,44.9328546,-93.195973
1279,Winchell Trail,park,44.9238225,-93.204354
1280,Annie Young Meadow,park,44.9533408,-93.2104548
1281,Sibley Park,park,44.9309979,-93.2444462
1282,Wabun Picnic Area,park,44.9148565,-93.2047077
1283,Nokomis East Gateway Gardens,park,44.91287099999999,-93.2113229
1284,Nokomis Naturescape,park,44.9156473,-93.2365166
1285,Mississippi Gorge Regional Park,park,44.9371211,-93.20370349999999
1286,Minnehaha Parkway,park,44.916242,-93.2255284
1287,Shadow Falls Park,park,44.9426525,-93.19565349999999
1288,Dowling Community Garden,park,44.932501,-93.2073142
1289,ADDC WEBSITE | Contact,park,44.9303839,-93.217509
1290,"Rev. Dr. Martin Luther King, Jr. Park",park,44.9292349,-93.277322
1291,Sonny's Ice Cream Cafe,park,44.9411685,-93.28791369999999
1292,Lake Nokomis Park,park,44.9105922,-93.2463863
1295,McRae Park,park,44.9183948,-93.2611498
1297,Lyndale Farmstead Dog Park,park,44.9326464,-93.2931211
1298,Lyndale Park Gardens,park,44.9275251,-93.2953725
1299,Annual/Perennial Gardens,park,44.9274528,-93.29556339999999
1300,Lyndale Park Rose Garden,park,44.92741729999999,-93.29576
1301,Peace (Rock) Garden,park,44.9286263,-93.29604379999999
1304,Thomas Sadler Roberts Bird Sanctuary,park,44.92900940000001,-93.3027321
1307,Lake Nokomis Community Center,park,44.9115,-93.243102
1308,Pearl Park,park,44.9036632,-93.26878599999999
1309,Painter Park,park,44.942151,-93.28748499999999
1315,Minnehaha Dog Park,park,44.90599170000001,-93.197976
1316,Hidden Falls Regional Park,park,44.9062788,-93.19305179999999
1318,Keewaydin Park,park,44.9074817,-93.2284899
1319,Xinia Park,park,44.9101266,-93.1808686
1321,Nokomis Naturescape Garden,park,44.9129089,-93.2344536
1323,Howell Park,park,44.9072399,-93.1797702
1324,The Zeilingold Triangle,park,44.9100679,-93.17773059999999
1329,Keewaydin Field,park,44.90815419999999,-93.22788419999999
1330,Windom South Park,park,44.8975492,-93.2800741
1331,B&J Trees at Veterans Memorial Park in Richfield,park,44.8883394,-93.2659832
1332,Wood Lake Nature Center,park,44.87811749999999,-93.29173329999999
1333,Diamond Lake Park,park,44.90012,-93.2692363
1334,Madison Park,park,44.8896992,-93.302071
1335,Nicollet Park,park,44.8891636,-93.27690840000001
1336,Garfield Park,park,44.8878172,-93.286344
1337,Modernized Nature Woodworking,park,44.8933137,-93.2681483
1339,Honoring All Veterans Memorial,park,44.88703329999999,-93.2678596
1340,Minnehaha Creek West Park,park,44.9106579,-93.298474
1341,Richfield Recreation Services,park,44.8806624,-93.2686573
1342,Lynnhurst Park,park,44.91321190000001,-93.2996891
1343,Veterans Park,park,44.888336,-93.2659851
1344,Monroe Field,park,44.8815639,-93.3008126
1345,Minnehaha Creek Park,park,44.910398,-93.2719762
1346,Kenny Park,park,44.8987202,-93.29743979999999
1347,Good view,park,44.88675659999999,-93.28955739999999
1348,Grass Lake Park,park,44.8928676,-93.29824169999999
1349,Richfield Lake Park,park,44.8856207,-93.2916906
1368,Lake Hiawatha Park Bridge,park,44.9187482,-93.23375449999999
1369,S 32nd Ave Tennis Courts,park,44.9194361,-93.2255837
1390,Sunset Funeral Home & Sunset Cemetery,park,45.009927,-93.2139193
1392,Cavell Park,park,45.03025299999999,-93.24149399999999
1395,Waite Park,park,45.0293327,-93.2352815
1397,Water Tower Park,park,45.0281271,-93.21628369999999
1398,Ostrander Park,park,45.0404309,-93.2377478
1399,Ridgway Parkway Park,park,45.00287700000001,-93.218222
1400,Salo Park,park,45.0383992,-93.22275859999999
1401,Salo Park Amphitheater,park,45.0385792,-93.2228171
1408,Silver Point Park,park,45.0199688,-93.21675619999999
1409,Prestemon Park,park,45.0390571,-93.22953389999999
1442,Lowry Park,park,44.9672516,-93.2915682
1449,Loring Park,park,44.9699681,-93.2848422
1458,Talmage Crossing Community Garden,park,44.9896842,-93.22307470000001
1459,Como Corner Community Garden,park,44.9879769,-93.2214106
1460,FairShare Farm,park,44.9860769,-93.2215836
1461,Skyview Park,park,44.99315310000001,-93.20460609999999
1467,Hendon Triangles Park,park,44.9863841,-93.1959273
1502,"Northern Star, Scout BSA Base Camp",park,44.8933085,-93.1913687
1506,Airport Dog Park 1,park,44.8916455,-93.23261989999999
1516,Hampden Park,park,44.96975539999999,-93.1988751
1518,Green Party of Mn,park,44.9643564,-93.19789279999999
1519,Cromwell Square,park,44.9724063,-93.2005106
1520,Sydney Triangle,park,44.96870749999999,-93.19856109999999
1525,Gordon Square,park,44.97693049999999,-93.1964079
1526,Langford Recreation Center,park,44.9762821,-93.1951654
1549,Bossen Field Park,park,44.89869460000001,-93.2297552
1571,Valley View Park,park,45.0044507,-93.3198438
1577,Sochacki Park,park,45.006031,-93.3329387
1578,Theodore Wirth Chalet,park,44.9923973,-93.3233195
1586,North Commons Park,park,44.9969806,-93.30257610000001
1590,Dell Park,park,44.92237399999999,-93.31364479999999
1592,Lake Harriet Bandshell Park,park,44.9281483,-93.30768669999999
1594,William Berry Park,park,44.9316725,-93.3104772
1601,Linden Hills Park,park,44.9259789,-93.32004739999999
1602,Arden Park,park,44.9074908,-93.33434659999999
1603,Strachauer Park,park,44.8902118,-93.3238887
1604,Pershing Field Park,park,44.9158567,-93.3243725
1605,Lynnhurst Field,park,44.9134121,-93.2992398
1606,Pershing Park Basketball Courts,park,44.91459700000001,-93.3249417
1607,Dog Beach,park,44.9159129,-93.3094395
1608,Thom The Elf,park,44.9157228,-93.3087589
1609,Newton Sledding Hill,park,44.9105425,-93.3061362
1665,Theodore Wirth Regional Park - Volleyball Courts,park,44.9795466,-93.32357999999999
1668,Adeline Nature Area,park,44.9879995,-93.34356849999999
1725,Temple Israel Memorial Park Cemetery,park,44.9273386,-93.2712509
1726,Corcoran Park,park,44.9417484,-93.2441925
1727,Phelps Field Park,park,44.9320116,-93.2633132
1728,Bancroft-Meridian Garden,park,44.9340187,-93.25719149999999
1729,HardShell Frost Iron Training,park,44.9338041,-93.24577219999999
1741,Brownie Lake Park,park,44.9689615,-93.3245459
1743,WESAC Soccer Field #2,park,44.966356,-93.3056477
1745,Brownie Lake Mt. Bike Trails,park,44.9694592,-93.3236975
1747,Quaking Bog,park,44.9731947,-93.32833409999999
1759,Wolfe Park,park,44.93719309999999,-93.3424014
1762,Bde Maka Ska,park,44.9480368,-93.3063892
1763,Park Siding Park,park,44.9519016,-93.3200825
1765,Lake of the Isles Park,park,44.9516474,-93.30760049999999
1769,Trolley Path Garden,park,44.9239,-93.3194
1788,Nicollet Reading Room,park,44.9723665,-93.2761349
1828,Todd Park,park,44.9004195,-93.2640205
1829,Solomon Park,park,44.89645549999999,-93.2531206
1859,Feronia Square,park,44.95432619999999,-93.1812216
1862,Iris Park,park,44.9563256,-93.1801983
1866,Dickerman Park,park,44.955948,-93.1743702
1868,Cato Park,park,44.963869,-93.1776239
1907,Target Field Station Plaza & Amphitheater,park,44.98309620000001,-93.2786481
1908,North Loop Dog Care,park,44.9869064,-93.2824593
1909,Tocoma Park Place,park,44.9836543,-93.2693572
1944,Farview Park,park,45.00891619999999,-93.2855101
1947,Jordan Park,park,45.010483,-93.29992999999999
1949,Cleveland Park,park,45.0144374,-93.30971219999999
2025,Kenwood Park,park,44.9644377,-93.3057153
2027,Cedar Lake Point Beach,park,44.960487,-93.3227354
2062,Indulge & Bloom,park,44.9475647,-93.2976734
2064,Vera's Garden,park,44.9503851,-93.28735859999999
2065,East Isles Demonstration Raingarden,park,44.9495983,-93.30056979999999
2066,Soo Line Community Garden,park,44.950925,-93.28636689999999
2067,Lyndale Farmstead Park,park,44.932071,-93.2913459
2068,Whittier Park,park,44.9540262,-93.28507479999999
2069,Sledding Hill,park,44.93077479999999,-93.2919117
2108,Victory Memorial Park,park,45.0131502,-93.3188955
2109,Lakeview Terrace Park,park,45.0217105,-93.3251452
2128,Shoreview Triangle,park,44.90557939999999,-93.2364983
2147,Nokomis Field 8 & 9,park,44.9124989,-93.24705999999999
2148,Nokomis Park - Nokomis SB/KB 9,park,44.91250829999999,-93.2469639
2149,Giant Black Willow Tree,park,44.91537379999999,-93.2428443
2265,Coldwater Spring,park,44.9013127,-93.1974627
2268,Minnehaha Creek,park,44.90894,-93.200853
2269,Novelty Falls,park,44.9050826,-93.1948901
2286,University Grove Park,park,44.99024379999999,-93.1917821
2302,East Phillips Park,park,44.96037680000001,-93.24858479999999
2306,Peaceful Patch Community Garden,park,44.9577064,-93.25901929999999
2307,Midtown Greenway,park,44.9508696,-93.2463923
2308,Parking dpot,park,44.96155049999999,-93.2510053
2309,Artstop Garden,park,44.9446285,-93.2623744
2315,Triangle Park,park,44.95964600000001,-93.328334
2320,Keystone Park,park,44.94762,-93.35637
2321,Birchwood Park,park,44.9540729,-93.35469499999999
2326,Twin Lakes Park,park,44.9579946,-93.3405023
2336,North Tyrol Park,park,44.97160309999999,-93.33335579999999
2389,Lauderdale Community Park,park,44.9981904,-93.1987439
2465,Sheridan Park,park,44.88532399999999,-93.31478399999999
2468,Oliver Triangle,park,44.89810799999999,-93.307389
2469,Armatage Park,park,44.8997474,-93.30985650000001
2475,Rosland Park,park,44.8845687,-93.335275
2479,"Edina Promenade (Walking, Biking)",park,44.8733943,-93.32338899999999
2483,Pamela Park,park,44.8950354,-93.3338569
2487,Washburn Tot Lot,park,44.8968436,-93.31752689999999
2610,Silverwood Park,park,45.047801,-93.223126
2622,Silver Lake Beach Park,park,45.0471801,-93.2270937
2628,Huset Park,park,45.0395518,-93.255558
2629,Deming Heights Park,park,45.0243929,-93.2436803
2686,Marshall Terrace Park,park,45.0174172,-93.2733142
2687,Wood Chips Location,park,45.0223397,-93.2723204
2688,Edgewater Park,park,45.012585,-93.272368
2689,Xcel Field Park,park,45.0253327,-93.2736607
2781,Hosmer Community Garden,park,44.93765310000001,-93.2698987
2782,Sabathany Community Park,park,44.93568330000001,-93.27175559999999
2785,DREAMSLAND,park,44.94292669999999,-93.2640905
2793,Alden Square Park,park,44.9758921,-93.1879033
2799,Tatum Park,park,44.9684444,-93.180539
2801,May Park,park,44.96537499999999,-93.17823
2805,Hamline Park,park,44.9599593,-93.1667032
2807,Curtiss Field Park,park,44.98931289999999,-93.1661465
2809,St Paul Park Department Operations,park,44.97413450000001,-93.1562706
2810,Como Park Zoo & Conservatory,park,44.9829878,-93.15411259999999
2813,Como Park,park,44.979549,-93.1544064
2814,Como Regional Park,park,44.9789384,-93.14990039999999
2815,Como Park Fire Pits,park,44.977688,-93.154758
2816,Como Woodland Outdoor Classroom,park,44.97718220000001,-93.1565191
2817,Van Slyke Triangle,park,44.97704209999999,-93.1450096
2818,Leroy Triangle,park,44.97604980000001,-93.1426583
2819,Stinson Park,park,44.9690658,-93.1422061
2820,Bruce Russell Park,park,44.9996277,-93.14927999999999
2821,Frogtown Park and Farm,park,44.9622307,-93.139018
2824,Horton Park,park,44.9637558,-93.1577479
2826,Como Town,park,44.9811707,-93.1547562
2828,Ryan Park,park,44.9598034,-93.1334718
2830,Minnesota Department of Natural Resources,park,44.956276,-93.083986
2831,Lewis Park,park,44.9684682,-93.1089653
2832,Sylvan Park,park,44.9769481,-93.10267410000002
2833,Swede Hollow Park,park,44.9617465,-93.0718548
2834,Trout Brook Nature Sanctuary,park,44.9728275,-93.0923802
2835,Lyton Park,park,44.96559610000001,-93.1037767
2836,Arlington/Arkwright Off Leash Dog Park,park,44.9825415,-93.0835774
2837,Como Avenue Horseshoe Courts,park,44.96167189999999,-93.1114443
2838,Valley Playground,park,44.9585703,-93.09732199999999
2839,Weida Park,park,44.9604813,-93.0804151
2840,Upper Mall Minnesota State Capitol,park,44.9534435,-93.1022072
2841,Eden Community Garden,park,44.9575632,-93.12252
2842,Western Sculpture Park,park,44.9530943,-93.111469
2843,Athens State Wildlife Management Area,park,44.95622579999999,-93.0838417
2844,Wheelock Triangles,park,44.9849304,-93.07058359999999
2845,Pedro Park,park,44.95105029999999,-93.094726
2846,Cayuga Park,park,44.9665659,-93.092175
2847,West Minnehaha Recreation Center,park,44.96334700000001,-93.1292687
2848,Front Park,park,44.9696128,-93.1195398
2849,Marydale Park,park,44.9754643,-93.12410949999999
2867,Hamline and Hague Park (Tot-Lot),park,44.9455838,-93.1561624
2870,Edgcumbe Recreation Center,park,44.931763,-93.151675
2871,Cambridge Triangle,park,44.9366125,-93.1722396
2872,SCH Property Services - Lawn Care and Snow Removal,park,44.9359854,-93.1548122
2874,Eleanor Graham Community Garden,park,44.9439247,-93.1566574
2875,Healthy West 7th Community Garden,park,44.91939999999999,-93.1371767
2877,Kenwood Park,park,44.93564699999999,-93.12786369999999
2880,Victoria Community Garden,park,44.9510531,-93.13625110000001
2881,Webster Park,park,44.9445494,-93.1301364
2883,Bay Triangle,park,44.9229647,-93.1304499
2884,The House of Hope Presbyterian Church,park,44.94193689999999,-93.13327849999999
2885,Crocus Hill Terrace Park,park,44.9359234,-93.1257479
2886,Crocus Triangle,park,44.9376257,-93.1259723
2887,Holcombe Circle,park,44.9449502,-93.12880419999999
2890,Crosby Farm Regional Park,park,44.8975169,-93.16597070000002
2891,Crosby Farm Park,park,44.90914919999999,-93.145895
2900,HGRO Community Garden,park,44.9092458,-93.1675125
2901,Homecroft Park,park,44.90122319999999,-93.1784366
2902,Highland Park Aquatic Center,park,44.911084,-93.15541499999999
2903,Two Rivers Overlook,park,44.8959052,-93.1787456
2904,Highland Park,park,44.9119801,-93.155101
2905,Pike Island,park,44.8965961,-93.1512483
2906,Local Sledding Hill Under The Watertowers,park,44.9190856,-93.1649449
2907,Mississippi River and Minnesota River Bdote,park,44.8957045,-93.1499745
2908,Snoopy,park,44.9193505,-93.1622752
2909,Ford Little League Field,park,44.91276329999999,-93.1883221
2910,Rice Park,park,44.9447498,-93.0971128
2911,Raspberry Island,park,44.94248090000001,-93.0903206
2912,Upper Landing Park,park,44.9410547,-93.0978586
2913,Mears Park,park,44.9493556,-93.08803610000001
2914,High Bridge Dog Park,park,44.9364409,-93.10604459999999
2915,Mississippi National River and Recreation Area,park,44.94253399999999,-93.09881899999999
2916,Harriet Island Park,park,44.9356241,-93.0974691
2917,Douglas Park,park,44.92808299999999,-93.09946099999999
2918,Alice Park,park,44.931487,-93.09856350000001
2919,Parque Castillo,park,44.93078219999999,-93.07875279999999
2920,Kidd Park,park,44.9352949,-93.08713019999999
2921,Prospect Terrace Park,park,44.93544379999999,-93.08971419999999
2922,Harmon Park,park,44.9157547,-93.0949289
2923,Haskell Park,park,44.91698530000001,-93.07123779999999
2924,Chestnut Plaza,park,44.9401462,-93.0991117
2925,High Bridge Park North,park,44.9371643,-93.1087494
2926,Kellogg Mall Park,park,44.94506450000001,-93.08971419999999
2927,Cleveland Circle,park,44.9460501,-93.10177469999999
2928,Lower Landing Park,park,44.9484584,-93.07734359999999
2929,Lowertown Dog Park,park,44.95098,-93.0855103
2942,Summit Overlook Park,park,44.94154,-93.117049
2944,Martin Luther King Recreation Center,park,44.949494,-93.122535
2947,Cathedral Hill Park,park,44.9469217,-93.10725769999999
2948,Summit Park,park,44.9480084,-93.1074927
3031,Phalen Regional Park,park,44.9891975,-93.05692839999999
3034,Indian Mounds Regional Park,park,44.9467837,-93.0568405
3035,Sam Eddy Memorial Garden,park,44.97957,-93.063603
3037,Forest Street Triangle,park,44.9641233,-93.06105149999999
3038,Hamm Park,park,44.95985709999999,-93.0707207
3041,Lane Park,park,44.97529929999999,-93.0491352
3044,Skidmore Park,park,44.9585731,-93.054643
3045,Union Depot Rail View Picnic Area,park,44.951216,-93.07724999999999
3046,Ames Lake Park,park,44.9745025,-93.0407302
3047,Maria Avenue Triangle,park,44.9491338,-93.0643893
3048,Mounds Park,park,44.94952799999999,-93.059185
3051,Frost Lake Park,park,44.9890895,-93.04039580000001
3053,Hillcrest Knoll Park,park,44.9882252,-93.02899889999999
3055,Maryland Ave Open Space,park,44.9772904,-93.0124651
3057,Sterling Oaks Park,park,44.9837657,-92.99902680000001
3058,Ramsey County Parks and Recreation Offices,park,45.0003495,-93.0225428
3061,Wakefield Park,park,44.9987642,-93.0343918
3062,Prosperity Heights Park,park,44.9823269,-93.0315141
3063,Beaver Valley Camp,park,44.9700341,-93.0312912
3064,Everlasting Turf,park,44.98345,-93.0255701
3065,Fowl Pond Loop,park,44.9677804,-93.03393
3066,FROST LAKE PARK,park,44.9897113,-93.03734469999999
3067,Furness Park,park,44.9859286,-93.0159147
3068,Hayden Heights Playground,park,44.9891044,-93.01778949999999
3069,Goodrich Park Playground,park,44.9959436,-93.0189956
3084,Mounds Boulevard and Earl Street Saint Paul Minnesota,park,44.9460233,-93.05575590000001
3090,Battle Creek Regional Park,park,44.93836719999999,-93.01400009999999
3091,Afton Heights Park,park,44.94275349999999,-92.99568359999999
3092,Battle Creek West,park,44.93586329999999,-93.01381830000001
3093,Vista Hills,park,44.9259184,-92.9955205
3094,Highwood Preserve,park,44.91869820000001,-93.01225470000001
3095,Applewood Park Entrance,park,44.9189835,-92.9942371
3096,Applewood Park,park,44.9171893,-92.99193249999999
3097,Kaposia Landing,park,44.9121743,-93.0490657
3098,Pleasantview Park,park,44.9081342,-92.99697689999999
3099,Summit Park,park,44.9096958,-93.0516055
3100,Battle Creek Dog Park,park,44.94060849999999,-93.00177649999999
3101,Highwood Hills Recreational Area,park,44.92928000000001,-93.0091277
3102,Pig's Eye Regional Park,park,44.93086900000001,-93.03665219999999
3103,Henry Park,park,44.91044599999999,-93.01075
3104,Battle Creek Upper Afton,park,44.94101200000001,-93.0029787
3105,Picnic Shelter,park,44.941972,-93.0009966
3106,Battle Creek Water Park,park,44.9436358,-93.0013918
3107,"Charles W. '"Speed'" Holman Memorial",park,44.93627439999999,-93.0546237
3108,Simon's Ravine Trailhead,park,44.912593,-93.0536789
3109,Billy Dunn's Wonderland,park,44.9006672,-93.00932999999999
3128,EcoGarden Supply,park,44.9651852,-93.18500399999999
3130,Blaisdell YMCA,gym,44.94212400000001,-93.279325
3131,Central Gym Park,gym,44.9396812,-93.2710317
3132,Circle of Discipline Inc,gym,44.9482391,-93.2573755
3133,Six Degrees Uptown,gym,44.9498583,-93.2870899
3134,Nice Ride Midtown Greenway & 5th Ave S,gym,44.9503714,-93.2691407
3135,LiveWell Fitness Center,gym,44.9529958,-93.26215979999999
3136,Yess Yoga,gym,44.95538519999999,-93.2768531
3137,ChicagoLake Yoga,gym,44.948601,-93.2629596
3138,X2 Fitness,gym,44.9564714,-93.27820109999999
3139,Greenway Yoga,gym,44.956898,-93.278582
3140,Los Campeones Gym,gym,44.95216320000001,-93.28031349999999
3141,"Home Body Yoga and Wellness, LLC",gym,44.95539369999999,-93.2832143
3142,IntraAwareness Coaching,gym,44.96296,-93.28004
3143,Kingfield Barbell,gym,44.9499392,-93.2865305
3144,CrossFit Kingfield,gym,44.94994510000001,-93.286535
3145,Open Minds Fusion Studio,gym,44.9480519,-93.2862956
3146,TwinTown Fitness,gym,44.955302,-93.28893099999999
3147,Minneapolis Yoga,gym,44.9505554,-93.288546
3148,jcv wellness,gym,44.9498583,-93.2870899
3149,YogaFit Studios,gym,44.96890219999999,-93.279975
3150,CorePower Yoga,gym,44.978525,-93.261007
3151,Minneapolis Club,gym,44.9748167,-93.26995
3152,Life Time,gym,44.9795281,-93.275989
3153,YWCA Minneapolis - Downtown,gym,44.9726132,-93.2766784
3154,North Loop Fitness,gym,44.98951030000001,-93.27862929999999
3155,The Firm,gym,44.9791621,-93.29274129999999
3156,CrossFit Minneapolis,gym,44.976551,-93.2835235
3157,Dayton YMCA at Gaviidae,gym,44.97714129999999,-93.2713898
3158,Yoga and Massage by Mary Bowman,gym,44.9877831,-93.2577198
3159,Anytime Fitness,gym,44.9830498,-93.2708492
3160,Yoga Sol,gym,44.98974700000001,-93.2536478
3161,The Fitness Zone,gym,44.9789949,-93.2717354
3162,Snap Fitness Minneapolis (Fourth Ave. Skyway),gym,44.974785,-93.26608
3163,The Meditation Center,gym,44.99538649999999,-93.26103549999999
3164,STEELE Fitness™ Capella Tower,gym,44.97642219999999,-93.2687493
3165,STEELE Fitness Baker Center,gym,44.9755583,-93.271056
3166,ALTR,gym,44.983216,-93.27140299999999
3167,G-Werx Fitness Downtown,gym,44.98031590000001,-93.2611635
4659,Yoga Garden,gym,45.003263,-93.249094
3168,Nice Ride Elliot Park,gym,44.9706449,-93.2607967
3169,ZeSa Fitness,gym,44.9758778,-93.2537689
3176,Anytime Fitness,gym,44.97165539999999,-93.2181932
3179,Everyday Miracles,gym,44.99924909999999,-93.2491908
3181,Los Campeones Gym,gym,44.96264759999999,-93.2317605
3185,Snap Fitness Of Northeast Minneapolis,gym,44.99895470000001,-93.2465057
3186,University YMCA,gym,44.9774001,-93.2307091
3190,LA Fitness,gym,45.0586371,-93.3151992
3191,Idunna Fitness,gym,45.059608,-93.3239316
3192,Curves,gym,45.0645456,-93.309112
3193,The Healing Center Minneapolis,gym,45.0494522,-93.29193649999999
3194,Mama Aligned,gym,45.0352886,-93.30366939999999
3195,The Yoga Room,gym,45.0309665,-93.3137869
3196,Embody Yoga and Expression,gym,45.031684,-93.29489579999999
3197,Rumenation,gym,45.0325606,-93.2916944
3198,Snap Fitness Robbinsdale,gym,45.03053599999999,-93.33451699999999
3199,Crazy Monkey Twin Cities,gym,45.030746,-93.32802199999999
3201,YWCA Minneapolis - Midtown,gym,44.9480556,-93.24138889999999
3218,Somali Action Alliance,gym,44.9625451,-93.23496709999999
3231,North Strong Nordeast,gym,45.0040805,-93.2793696
3234,Clear Holistic Therapies,gym,44.97375400000001,-93.3087595
3235,Alchemy 365 North Loop,gym,44.9892117,-93.2805808
3236,TractorWorks Building,gym,44.9891361,-93.2785851
3237,Minneapolis Bouldering Project,gym,44.9935432,-93.2775506
3238,The Strength Box Gym,gym,44.9718619,-93.2863442
3239,Koficore,gym,44.9714587,-93.2856173
3240,Golden Gloves Firehouse Gym,gym,45.04065,-93.256975
3246,Rod Carew All Star Field,gym,45.02596009999999,-93.2745108
3247,Learning Tree Yoga,gym,45.0362287,-93.25975659999999
3250,Embrace The Wobble Yoga & Training,gym,45.0298873,-93.33801439999999
3251,Northside Boxing Club,gym,45.0153093,-93.300996
3253,DOCS Gym,gym,45.0127803,-93.3085493
3255,Lions Gym & Wellness Center,gym,45.02991859999999,-93.3385162
3261,Hy-Vee Pharmacy,gym,45.01927300000001,-93.327533
3264,Challenge Personal Training,gym,45.01342529999999,-93.3257862
3265,Joe,gym,45.01096799999999,-93.31488499999999
3275,Drainage Pond Of Jordan Neighborhood,gym,45.0087323,-93.3031961
3276,Distribution Center,gym,45.02026959999999,-93.26673749999999
3278,Chuchas,gym,45.0076966,-93.286445
3285,Knockout Bodies Pole & Aerial Studio,gym,45.010505,-93.247694
3290,Lotus Wellness Works,gym,45.003564,-93.260606
3291,Nordeast Yoga,gym,45.0011132,-93.2633678
3292,Straightline Dance Fitness,gym,44.99938179999999,-93.2717134
3293,weRow Indoor Rowing,gym,44.9989699,-93.27142239999999
3295,Northeast Kettlebells,gym,45.00439110000001,-93.24809300000001
3296,ExperTease Fitness,gym,45.0042577,-93.2461677
3297,Yoga Mama Prenatal Yoga,gym,44.99915060000001,-93.24917669999999
3298,CorePower Yoga,gym,44.9993034,-93.2463865
3316,Life Time,gym,44.91817319999999,-93.1904407
3317,CorePower Yoga,gym,44.92100500000001,-93.18698499999999
3318,Top Gun Crossfit,gym,44.93552179999999,-93.24770099999999
3319,Brackett Park,gym,44.9527506,-93.2175595
3320,Anytime Fitness,gym,44.9179171,-93.2159736
3321,Nokomis Yoga,gym,44.91278839999999,-93.2327444
3322,Big River Yoga,gym,44.9575642,-93.22277129999999
3323,Mindful Motion Tai-Chi Academy,gym,44.9543718,-93.2328301
3324,"Hardshell Fitness, LLC",gym,44.93380519999999,-93.245733
3325,Snap Fitness,gym,44.919861,-93.217035
3326,Flow Yoga St. Paul,gym,44.9340413,-93.1826858
3327,THE TALSAM,gym,44.913415,-93.22544409999999
3328,PaddleSculpt,gym,44.9122435,-93.2225758
3329,Institute of the Himalayan Tradition,gym,44.9205485,-93.18694839999999
3330,Hiawatha Yoga,gym,44.9432237,-93.2438476
3331,Faye Berton,gym,44.945422,-93.18032799999999
3332,Laurel Yoga Studio,gym,44.9454724,-93.18028880000001
3333,Alchemy 365 Highland Park,gym,44.9190021,-93.18756979999999
3334,The Fix Studio,gym,44.9350962,-93.2241767
3338,CorePower Yoga,gym,44.9489266,-93.2947487
3339,LA Fitness,gym,44.94757,-93.2976669
3343,Tarana Yoga Inc,gym,44.93430749999999,-93.28414509999999
3344,BodyWisdom Yoga,gym,44.9414575,-93.2885062
3345,Jessica Cressey Pilates,gym,44.9340954,-93.27791189999999
3346,Up Yoga,gym,44.9242312,-93.27772820000001
3347,Yoga Sanctuary,gym,44.9197528,-93.2797691
3348,Kingfield Pilates and Movement,gym,44.9247247,-93.28541899999999
3349,Fit For Life,gym,44.91600009999999,-93.270034
3350,Fertile Ground Natural Care,gym,44.93062880000001,-93.28877240000001
3351,Modus Locus,gym,44.939396,-93.25266529999999
3358,St. Paul Jewish Community Center,gym,44.9039384,-93.1743386
3364,St. Paul Pilates Studio,gym,44.910018,-93.18694699999999
3365,Siddha Yoga Meditation Center,gym,44.92633550000001,-93.180084
3369,Tree of Life Yoga,gym,44.93255140000001,-93.2201204
3370,Minnehaha Falls Low Balancing Rails,gym,44.917369,-93.211488
3371,LUMOS7 Pilates,gym,44.9287449,-93.2126375
3372,Be Wellness LLC,gym,44.92669319999999,-93.232586
3373,Private Yoga Minneapolis,gym,44.9326744,-93.22765559999999
3374,Lake Nokomis kayak launch,gym,44.9150088,-93.2369792
3375,LA Fitness,gym,44.8847844,-93.2852434
3376,Anytime Fitness,gym,44.90622989999999,-93.28802999999999
3377,Blooma Minneapolis,gym,44.9061483,-93.28766379999999
3378,Studio TimeOut,gym,44.89388249999999,-93.28789689999999
3379,Yoga Lift Center For Inner,gym,44.8933575,-93.281024
3380,F45 Training Southwest Minneapolis,gym,44.90350429999999,-93.28790629999999
3381,TITLE Boxing Club Minneapolis Southwest,gym,44.9035181,-93.28865449999999
3382,Snap Fitness (Nicollet Ave & W 54th St.),gym,44.90460969999999,-93.27766129999999
3383,"Yoga Psych Wellness, LLC",gym,44.9046189,-93.27765649999999
3384,Green Tara Studio,gym,44.9050317,-93.30817569999999
3386,CM's Fitness and Dance,gym,44.8809387,-93.3088787
3388,5809 Yoga,gym,44.89748910000001,-93.29438379999999
3389,yoga box,gym,44.8761,-93.267067
3390,Yoga Santosha,gym,44.9212414,-93.2905629
3391,Shooting Shed - Minneapolis Hockey,gym,44.8939878,-93.2855276
3392,martin luther king gym,gym,44.8934139,-93.2781061
3393,Elev8 Wellness LLC,gym,44.88896789999999,-93.28863799999999
3394,ETS Sports Performance,gym,44.8844885,-93.2659705
3409,Ludy's Gym Champions Only Boxing & Fitness,gym,44.93389819999999,-93.2392328
3412,HardShell Frost Iron Training,gym,44.9338041,-93.24577219999999
3413,Minneapolis Gymnastics,gym,44.9291488,-93.25314270000001
3414,Mohammadabdi,gym,44.938157,-93.2206798
3434,BTC Fitness,gym,44.9159391,-93.26291049999999
3435,Science of Spirituality Meditation Center Minneapolis/St. Paul,gym,45.042589,-93.2490426
3439,Yoga Sadhana,gym,45.0231852,-93.23232019999999
3442,Fitness Crossroad,gym,45.01550109999999,-93.220131
3445,Anytime Fitness,gym,45.0388404,-93.2199851
3447,Sabertooth Community Fitness,gym,44.9976199,-93.2220945
3448,Southside Brazilian Jiu-Jitsu Academy,gym,44.9953561,-93.22827389999999
3450,Equinox,gym,45.04128099999999,-93.2204389
3452,The YogaLab,gym,45.0053602,-93.2547577
3453,The BlissLab,gym,45.00521519999999,-93.25466779999999
3454,Windom Park Building,gym,45.0112493,-93.2339409
3473,Classic Tae Kwon Do Studios,gym,44.907262,-93.26224599999999
3484,Orangetheory Fitness,gym,44.9543542,-93.2975402
3500,Institute Exercise Medicine,gym,44.97218640000001,-93.2057641
3505,MPY,gym,44.9919672,-93.2217399
3508,Rabbit Hole Studios: Minnesota Performing Arts Cooperative (MPAC),gym,44.991359,-93.2506875
3510,YogaFit Studios,gym,44.990276,-93.25287499999999
3511,Alchemy 365 Northeast,gym,44.9843071,-93.2529029
3513,Studio ME Fitness,gym,44.9845169,-93.2542107
3533,Solcana Wellness,gym,44.9608236,-93.24337560000001
3534,Solcana Fitness,gym,44.9608084,-93.24384409999999
3548,Globg's Boxing,gym,44.8962151,-93.19809629999999
3561,Joy of the People,gym,44.96757129999999,-93.20057709999999
3564,Leslie Branham Fitness,gym,44.95774979999999,-93.1913866
3566,CrossFit St Paul,gym,44.9550664,-93.18705200000001
3568,Defining You Pilates and Fitness,gym,44.95811559999999,-93.1910918
3569,Healing Elements,gym,44.9818893,-93.19568149999999
3570,RiverStones Wellness,gym,44.9798877,-93.1907516
3571,Aikido of Minnesota,gym,44.9643159,-93.1824637
3572,Twin Cities Aikido Center,gym,44.96901949999999,-93.19746029999999
3587,Canchas Mn,gym,44.9180833,-93.26257369999999
3616,Anytime Fitness,gym,45.00346059999999,-93.3071385
3617,Harold Mezile North Community YMCA Youth & Teen Center,gym,44.9992628,-93.30273989999999
3619,Theodore Wirth Winter Recreation HQ,gym,44.99091480000001,-93.3260109
3625,The Institute For Men's Health and Well-Being,gym,45.0068658,-93.3148653
3629,Northside Yoga,gym,44.9970593,-93.30029680000001
3630,PRIME Massage,gym,44.9989436,-93.2932063
3631,Muscle Man,gym,44.9988378,-93.2929332
3632,The Sweat Shop Fitness,gym,44.9990396,-93.2915125
3634,CorePower Yoga,gym,44.9333811,-93.3384318
3635,Snap Fitness Edina (France Ave),gym,44.92222,-93.329458
3636,"Welcyon, Fitness After 50",gym,44.891879,-93.338781
3639,Thai Yoga Bodywork,gym,44.92317329999999,-93.3147534
3640,EDINA Body Transformation Trainer | Personal Training Gym,gym,44.9102792,-93.3293691
3641,Point of Balance Pilates and Wellness,gym,44.906417,-93.325524
3643,YogaFit Studios,gym,44.92107740000001,-93.3285643
3644,North Strong Linden Hills,gym,44.9219423,-93.3267614
3645,Kula Yoga,gym,44.92222,-93.329458
3648,Physical Culture (v),gym,44.8923807,-93.3398867
3651,Snap Fitness,gym,44.904683,-93.3082251
3652,Ananda Natural Medicine,gym,44.9122224,-93.32885569999999
3653,ALTR,gym,44.9123818,-93.3302306
3707,yoga in himalaya,gym,44.9768187,-93.3106164
3708,ME&I Fitness and Performance,gym,44.9910867,-93.30750770000002
3784,trailhead,gym,44.9699013,-93.29556149999999
3796,LA Fitness,gym,44.9387261,-93.34629059999999
3804,Fit Studios,gym,44.9400248,-93.341032
3805,Querencia CrossFit,gym,44.94101209999999,-93.3403577
3808,Modo Yoga Minneapolis,gym,44.9487217,-93.3219309
3809,SaFire Training,gym,44.9413741,-93.34203049999999
3810,Pilates For All,gym,44.94590300000001,-93.33471999999999
3811,Performance Running,gym,44.94104470000001,-93.3429457
3812,Kenwood Gymnastics Center,gym,44.9411659,-93.34026329999999
3838,YWCA Minneapolis - Uptown,gym,44.951025,-93.298767
3859,NeuLife Wellness,gym,44.88312409999999,-93.24884809999999
3867,Anytime Fitness,gym,44.8866269,-93.2486419
3872,YogaSix,gym,44.8838922,-93.250894
3873,Orangetheory Fitness,gym,44.8832817,-93.2509455
3897,St. Paul Midway YMCA,gym,44.9563745,-93.17510519999999
3911,St. Paul Strength Room,gym,44.96079900000001,-93.17742989999999
3993,Carpe Diem Yoga Studio,gym,45.00393,-93.2794156
4033,flourish pilates+yoga+bodywork,gym,44.9416486,-93.2124077
4071,Radiant Warrior Yoga,gym,44.955766,-93.29768539999999
4085,CYCLEBAR,gym,44.94893860000001,-93.2968568
4086,SATTVA,gym,44.94456,-93.290914
4087,IM=X Pilates & Fitness,gym,44.9517606,-93.297906
4150,Courage Kenny Rehabilitation Institute Fitness Center – Golden Valley,gym,44.9986967,-93.3294063
4319,Body Rejuvenation,gym,45.0126289,-93.19671
4338,Yoga At The Well,gym,44.9618135,-93.27695709999999
4339,Polaris Yoga Studio,gym,44.9458704,-93.2567873
4340,Belegarth practice,gym,44.9432608,-93.2547068
4341,Life Time,gym,44.9616245,-93.3502154
4356,Pure Barre,gym,44.9380752,-93.35056209999999
4379,SYNDICATE.YOGA + BARRE,gym,44.9667522,-93.3486299
4380,[solidcore] St. Louis Park,gym,44.966601,-93.348739
4440,Suzanne Hope Yoga,gym,44.9472695,-93.2418642
4493,Alchemy 365 Edina,gym,44.8813862,-93.31976879999999
4516,Orangetheory Fitness,gym,44.8753937,-93.3258142
4520,Pure Barre,gym,44.8744971,-93.3281389
4652,Sacred Rituals,gym,45.0135262,-93.2202014
4653,Centro De Nutricion / Nutrition Center,gym,45.0424771,-93.2476506
4654,Anytime Fitness,gym,45.0105106,-93.2469692
4655,Lions Tae Kwon Do Academy,gym,45.0433549,-93.2477177
4660,NKB Yoga,gym,45.00352700000001,-93.2500713
4719,Hoops and Christ,gym,45.0095461,-93.2684199
4720,Northeast Fitness,gym,45.007098,-93.272227
4736,612 Yoga + Fitness,gym,45.0070846,-93.2722344
4821,Bliss Yoga Studio,gym,44.977668,-93.166246
4823,YogaHotDish Yoga Classes St. Paul,gym,44.992737,-93.1835428
4825,St. Paul Gymnasium,gym,44.9877857,-93.1865895
4830,JT Fitness,gym,44.977108,-93.17698879999999
4834,Element Gym,gym,44.96097289999999,-93.17931519999999
4835,Audacious Alchemy,gym,44.9644033,-93.1977258
4836,Skybox St. Paul,gym,44.9698607,-93.19510640000001
4837,Fly Freak Studio,gym,44.9646862,-93.1829767
4838,Anytime Fitness,gym,44.9926018,-93.1481281
4843,Competitive Wellness,gym,44.9889307,-93.1568844
4844,Curves,gym,44.9920433,-93.1655
4845,Como Park,gym,44.979748,-93.1477161
4846,The F.I.T. Lab,gym,44.9889307,-93.1568844
4847,Como Park,gym,44.9704871,-93.1342215
4848,Hamline University: Lloyd W.D. Walker Fieldhouse,gym,44.967242,-93.16608
4849,Studio One Yoga,gym,45.0000485,-93.1461477
4850,CTG Yoga,gym,44.9640418,-93.1557151
4851,Friends and Neighbors Yoga,gym,44.9920216,-93.18002849999999
4852,Lloyd W.D. Walker Fieldhouse,gym,44.967242,-93.1660802
4853,St. Paul Eastside YMCA,gym,44.968166,-93.067768
4854,5 Minute Fitness Gym,gym,44.97032069999999,-93.1112665
4855,Arlington Hills Community Center,gym,44.977104,-93.07311949999999
4856,Bikram's Yoga College of India,gym,44.957684,-93.12663889999999
4858,St. Paul Hot Yoga and Health,gym,44.957684,-93.126639
4859,Equipt Fitness Studio,gym,44.9514552,-93.0941666
4860,LA Fitness,gym,44.9549181,-93.1580625
4862,SweatShop Health Club,gym,44.9463285,-93.16745689999999
4875,The St. Paul Yoga Center,gym,44.946525,-93.149361
4876,Major Body Fitness,gym,44.9496213,-93.1459909
4883,CorePower Yoga,gym,44.9401345,-93.136569
4884,Anytime Fitness,gym,44.9402,-93.14497
4889,Leonard Center Athletic and Wellness Complex,gym,44.93741279999999,-93.1676974
4890,Caron Yoga,gym,44.92685189999999,-93.1667379
4891,Philippine Combat Arts School: Bahad Zubu Kali - Stickfighting - Boxing,gym,44.9316712,-93.1505035
4892,Pure Barre,gym,44.9404378,-93.14433819999999
4898,Yoke Fitness,gym,44.92367649999999,-93.1322204
4908,Planet Fitness,gym,44.902824,-93.169
4909,The Power House MN,gym,44.922859,-93.167417
4910,The Grappler Station,gym,44.9229806,-93.1664969
4911,Positive Health Co,gym,44.92450729999999,-93.1717493
4913,Defining You,gym,44.93033130000001,-93.1667688
4914,St. Paul Downtown YMCA,gym,44.9491799,-93.08920859999999
4915,Anytime Fitness,gym,44.9400883,-93.0997172
4916,Saint Paul Athletic Club,gym,44.9458259,-93.092384
4917,Anytime Fitness,gym,44.9091033,-93.08184150000001
4918,West Side Community: Frazin Rachel M,gym,44.93028570000001,-93.0782067
4919,St. Paul Brazilian Jiu Jitsu Academy,gym,44.9363559,-93.07114130000001
4920,Milton M. Hurwitz ExerCare Fitness Center,gym,44.9433927,-93.10604219999999
4921,Timberwolf Crossfit,gym,44.93511789999999,-93.1155965
4922,RiverGarden Yoga Center,gym,44.9383281,-93.1114065
4923,Balance & Vitality Wellness,gym,44.9290451,-93.08158759999999
4924,ZUMBA ⭐⭐ ⭐,gym,44.9319356,-93.0805926
4925,Westside Boys and Girls club,gym,44.9224937,-93.0726566
4926,cherokee hill climb,gym,44.924646,-93.10900389999999
4927,Kilo Strength and Performance,gym,44.9426149,-93.0805534
4928,Playground,gym,44.91101520000001,-93.0940746
4929,AASF#1 Gym,gym,44.9390175,-93.0695509
4930,Northern Yoga Center,gym,44.94709630000001,-93.0894986
4931,Conquer Ninja Gyms - St.Paul,gym,44.9469259,-93.0955116
4932,D1 Training Saint Paul,gym,44.9469259,-93.0955116
4933,Saint Paul Fit Body Boot Camp,gym,44.9482591,-93.0901739
4940,Longevity Studio,gym,44.9467371,-93.1210917
4945,YWCA St. Paul,gym,44.9470863,-93.11562339999999
4951,Survival 2 Strength,gym,44.942024,-93.15571899999999
4953,Orangetheory Fitness,gym,44.9396514,-93.1360146
4963,Up Yoga St Paul,gym,44.94626969999999,-93.1178338
4964,Farrell's Extreme Bodyshaping - St Paul,gym,44.946732,-93.120272
4965,Grand Hill Athletic Club,gym,44.9402872,-93.12283359999999
4971,Rugged North Fitness,gym,44.9482958,-93.0901449
4992,Minnesota Daoguan,gym,44.949,-93.08337999999999
5007,St. Francis Bowling Center,gym,44.9278999,-93.1276489
5029,Great River Taoist Center Twin Cities,gym,44.9490201,-93.083323
5036,SIR BOXING CLUB,gym,44.9845873,-93.06570719999999
5037,Teach to Breathe Pilates,gym,44.9846535,-93.0656042
5038,Tweak My Workout Studio and Andrea Austin Fitness,gym,44.9596876,-93.0429613
5039,Midwest Karate Association Inc,gym,44.9601516,-93.0692109
5040,Top Spin Course,gym,44.9720387,-93.04776799999999
5041,Rice Street Old School Boxing Gym,gym,44.9680907,-93.0461699
5042,Ben's Chateau,gym,44.96894169999999,-93.03696529999999
5049,brunette boxing,gym,44.959938,-93.0297622
5050,Twin City Barbell Weightlifting Club,gym,44.9599134,-93.029519
5051,Anytime Fitness,gym,44.9506321,-93.0288704
5057,East Twins Baseball,gym,44.9930178,-93.0334738
5058,Fit IV Life,gym,44.9952123,-93.02392859999999
5059,Bodyshop Fitness + Wellness,gym,44.9512272,-93.040057
5081,Yoga in the Park,gym,44.9354188,-93.02843899999999
5082,Jump start,gym,44.943692,-92.9993564
5083,Gym,gym,44.907429,-93.04836
5104,Midtown Global Market,restaurant,44.948519,-93.260485
5105,Quang Restaurant,restaurant,44.9530649,-93.2776908
5106,Eat Street Social,restaurant,44.95566949999999,-93.27840739999999
5107,Icehouse,restaurant,44.9563206,-93.278071
5108,Common Roots Cafe,restaurant,44.955733,-93.288355
5109,French Meadow Cafe & Bluestem Bar,restaurant,44.95499,-93.288477
5110,Bryant Lake Bowl and Theater,restaurant,44.9485233,-93.2901423
5111,The Bad Waitress,restaurant,44.955727,-93.27766
5112,Pat's Tap,restaurant,44.9392258,-93.278176
5113,moto-i,restaurant,44.948685,-93.2883259
5114,Peninsula Malaysian Cuisine,restaurant,44.95512009999999,-93.2781906
5115,Pizza Lucé Uptown,restaurant,44.9445074,-93.28871509999999
5116,The Bulldog Uptown,restaurant,44.9559009,-93.2877445
5117,Rainbow Chinese Restaurant and Bar,restaurant,44.9525,-93.27749999999999
5118,Pho 79,restaurant,44.9562889,-93.2776083
5119,Black Forest Inn,restaurant,44.955354,-93.27759800000001
5120,Pancho Villa Mexican Restaurant,restaurant,44.9560271,-93.2775911
5121,Subway,restaurant,44.9630032,-93.2632776
5122,CC Club,restaurant,44.955388,-93.288444
5123,Christos Greek Restaurant,restaurant,44.9544006,-93.2780982
5124,Hell's Kitchen Inc.,restaurant,44.9746062,-93.27259810000001
5125,Seven Steakhouse Sushi & Rooftop,restaurant,44.9779868,-93.2752376
5126,Rock Bottom Restaurant & Brewery,restaurant,44.976444,-93.27664000000001
5127,Buca di Beppo Italian Restaurant,restaurant,44.9739483,-93.28003849999999
5128,Manny's Steakhouse,restaurant,44.9743953,-93.2720011
5129,Fogo de Chão Brazilian Steakhouse,restaurant,44.9781329,-93.2740848
5130,Zelo,restaurant,44.97503999999999,-93.2736207
5131,Pizza Luce,restaurant,44.9817859,-93.2736619
5132,112 Eatery,restaurant,44.9825481,-93.2717776
5133,The Oceanaire Seafood Room,restaurant,44.97814959999999,-93.2717243
5134,Smack Shack,restaurant,44.986801,-93.27640099999999
5135,Sticks Restaurant,restaurant,44.989828,-93.2750528
5136,Dakota,restaurant,44.973659,-93.275307
5137,Gluek's Restaurant & Bar,restaurant,44.9793575,-93.2741417
5138,The Capital Grille,restaurant,44.97692389999999,-93.27590900000001
5139,Nicollet Island Inn,restaurant,44.9858682,-93.2605275
5140,Ruth's Chris Steak House,restaurant,44.973085,-93.27223959999999
5141,The Pourhouse,restaurant,44.97953,-93.27182499999999
5142,The News Room,restaurant,44.9741923,-93.2747754
5143,CRAVE American Kitchen & Sushi Bar (LaSalle Plaza - Minneapolis),restaurant,44.976479,-93.276507
5144,Graduate Minneapolis,restaurant,44.9743662,-93.2296097
5147,Town Hall Brewery,restaurant,44.9733333,-93.2477778
5155,Alma,restaurant,44.983884,-93.248088
5156,Elsie's,restaurant,44.9951559,-93.2663426
5158,Republic,restaurant,44.9732689,-93.24694799999999
5160,Red Stag Supperclub,restaurant,44.99033740000001,-93.2535846
5164,50's Grill,restaurant,45.05556060000001,-93.3231718
5165,Subway,restaurant,45.058962,-93.32109600000001
5166,Caribou Coffee,restaurant,45.0436315,-93.33049419999999
5167,Athens Cafe,restaurant,45.0295727,-93.3361369
5168,Burger King,restaurant,45.05936560000001,-93.3218622
5169,Ocean Buffet,restaurant,45.0603182,-93.312973
5170,Starbucks,restaurant,45.055241,-93.323201
5171,Que Viet Village House,restaurant,45.0657108,-93.3253438
5172,Domino's Pizza,restaurant,45.05865190000001,-93.3156236
5173,Little Caesars Pizza,restaurant,45.05710999999999,-93.32185
5174,Burrito Cubano,restaurant,45.04119670000001,-93.2870709
5175,IHOP,restaurant,45.057479,-93.322221
5176,Camden Tavern and Grill,restaurant,45.03869230000001,-93.28774109999999
5177,Holiday Stationstores,restaurant,45.0586495,-93.32026189999999
5178,Subway,restaurant,45.0563963,-93.3173102
5179,Popeyes Louisiana Kitchen,restaurant,45.0535151,-93.32268210000001
5180,Wingstop,restaurant,45.05863240000001,-93.3159902
5181,Einstein Bros. Bagels,restaurant,45.0586029,-93.316344
5182,QDOBA Mexican Eats,restaurant,45.058601,-93.3178033
5183,Panda Express,restaurant,45.05862689999999,-93.31838739999999
5224,Sarna's Classic Grill,restaurant,45.04039760000001,-93.2624817
5229,FireBox Deli,restaurant,45.040657,-93.28738399999999
5230,Amos & Amos Barbeque Restaurant,restaurant,45.0411017,-93.2590821
5231,Miller's,restaurant,45.0411398,-93.2577845
5232,Davanni's Pizza & Hot Hoagies,restaurant,45.0636088,-93.3049671
5236,New King Buffet,restaurant,45.06330559999999,-93.30904629999999
5237,McDonald's,restaurant,45.0364065,-93.2883909
5240,Joy Luck Restaurant,restaurant,45.0317454,-93.2885413
5242,Dairy Queen Store,restaurant,45.04088039999999,-93.2871868
5243,City Afrique Restaurant,restaurant,45.0344096,-93.2878556
5245,Travail Kitchen and Amusements,restaurant,45.0302276,-93.338562
5246,Pig Ate My Pizza Kitchen + Brewery,restaurant,45.0303911,-93.3379049
5247,Subway,restaurant,45.0297999,-93.3365269
5250,Subway,restaurant,45.01303490000001,-93.3079432
5252,Nonna Rosa's Ristorante Italiano,restaurant,45.03123050000001,-93.33895799999999
5254,McDonald's,restaurant,45.03165000000001,-93.33835599999999
5257,The Lowry Cafe,restaurant,45.013085,-93.30871
5261,Papa Murphy's | Take 'N' Bake Pizza,restaurant,45.020041,-93.3449911
5263,Broadway Pizza (Eagles Nest Lounge),restaurant,45.0310019,-93.33598070000001
5267,Tony Jaros River Garden,restaurant,45.0132791,-93.2720607
5275,Burger King,restaurant,45.013314,-93.2814279
5276,Food Gallery Catering,restaurant,45.00976109999999,-93.28083459999999
5277,Tooties On Lowry,restaurant,45.01341,-93.3150368
5279,The Pickles Cafe & Catering/ Mama Donato's Woodfired Pizza,restaurant,45.035667,-93.307994
5280,Subway,restaurant,45.0318482,-93.2886819
5281,CAMDEN MART & GREAT AMERICAN PIZZA,restaurant,45.0314017,-93.2960554
5282,Restaurant,restaurant,45.0313741,-93.29600099999999
5283,Mykonos Coffee & Grill,restaurant,45.03138849999999,-93.2883445
5284,Jax Cafe,restaurant,45.008368,-93.263395
5285,Psycho Suzi's Motor Lounge,restaurant,45.0074954,-93.2723882
5289,Erté & The Peacock Lounge,restaurant,45.0010822,-93.26330440000001
5290,Gasthof Zur Gemutlichkeit,restaurant,45.011374,-93.263376
5292,Mayslack's,restaurant,45.0029368,-93.2617277
5293,Stanley's Northeast Bar Room,restaurant,45.0133333,-93.263275
5295,Kramarczuk Sausage Company,restaurant,44.9878093,-93.2572948
5296,Brasa Premium Rotisserie- Northeast Minneapolis,restaurant,44.9895113,-93.25122189999999
5297,The Sample Room,restaurant,45.009554,-93.27197699999999
5298,Holy Land,restaurant,45.0138074,-93.24700960000001
5299,Bar La Grassa,restaurant,44.98925550000001,-93.2787407
5300,Black Sheep Coal Fired Pizza,restaurant,44.9871978,-93.2758789
5301,Wilde Cafe & Spirits,restaurant,44.98557819999999,-93.25763289999999
5302,Sprout,restaurant,44.9847781,-93.2758826
5303,612Brew,restaurant,44.9990539,-93.24689889999999
5324,Northbound Smokehouse & Brewpub,restaurant,44.934238,-93.23244199999999
5325,Matt's Bar and Grill,restaurant,44.93941779999999,-93.247638
5326,Birchwood Cafe,restaurant,44.957235,-93.223421
5327,Chatterbox Pub,restaurant,44.9393827,-93.2391533
5328,Memory Lanes,restaurant,44.9562765,-93.2349878
5329,Sumo Grill & Buffet,restaurant,44.949045,-93.24004509999999
5330,Blue Door Pub Longfellow,restaurant,44.939803,-93.21302999999999
5331,Town Hall Lanes,restaurant,44.9118585,-93.2226897
5332,El Nuevo Rodeo,restaurant,44.948153,-93.2325795
5333,The Riverview Coffee Shop & Wine Bar,restaurant,44.9344014,-93.2125362
5334,Himalayan Restaurant,restaurant,44.9486239,-93.2294357
5335,Papa Murphy's | Take 'N' Bake Pizza,restaurant,44.9485185,-93.20636209999999
5336,Cecil's,restaurant,44.9219144,-93.1877248
5337,Groveland Tap,restaurant,44.93406929999999,-93.1778679
5338,Cardinal Restaurant and Bar,restaurant,44.9342243,-93.2299658
5339,Davanni's Pizza & Hot Hoagies,restaurant,44.93999059999999,-93.18751979999999
5340,Merlins Rest Pub,restaurant,44.94819870000001,-93.2202315
5341,Stewart's,restaurant,44.94535499999999,-93.187111
5342,Sea Salt,restaurant,44.9160837,-93.2107848
5343,Punch Pizza Highland Park,restaurant,44.920286,-93.18690099999999
5346,Victor's 1959 Cafe,restaurant,44.9342239,-93.2847127
5352,Turtle Bread Company,restaurant,44.9163017,-93.26304619999999
5353,George and the Dragon,restaurant,44.912183,-93.29032439999999
5354,Wise Acre Eatery,restaurant,44.9050032,-93.2776485
5358,Sun Street Breads,restaurant,44.9194402,-93.2782173
5359,The Lowbrow,restaurant,44.9254287,-93.2781287
5360,Ena,restaurant,44.91945649999999,-93.2842178
5362,Subway,restaurant,44.9380631,-93.247062
5363,Cafeteria La Loma,restaurant,44.9482325,-93.2526721
5367,Highland Grill,restaurant,44.9182514,-93.1876915
5369,Tiffany Sports Lounge,restaurant,44.91809859999999,-93.1868385
5372,Chipotle Mexican Grill,restaurant,44.91745239999999,-93.18851839999999
5375,Luci Ancora,restaurant,44.9267043,-93.1876423
5376,Menchie's Frozen Yogurt,restaurant,44.91876999999999,-93.18722
5378,Chicago's Taste Authority,restaurant,44.92668299999999,-93.22672
5379,Starbucks,restaurant,44.91742379999999,-93.1879302
5380,Fireroast Coffee and Wine,restaurant,44.9340943,-93.21936459999999
5381,Dominguez Restaurant,restaurant,44.9123403,-93.2236899
5382,Parkway Pizza,restaurant,44.9235154,-93.2164401
5383,Noodles and Company,restaurant,44.9171403,-93.1893638
5385,Pizza Lucé,restaurant,44.883456,-93.28992199999999
5387,Pizzeria Lola,restaurant,44.9018155,-93.31860999999999
5388,Broders' Pasta Bar,restaurant,44.912055,-93.309141
5389,5-8 Club,restaurant,44.8977282,-93.2478849
5390,Patrick's Bakery & Cafe,restaurant,44.89391149999999,-93.2893941
5391,Subway,restaurant,44.90599279999999,-93.28804509999999
5393,The Malt Shop,restaurant,44.9121801,-93.2901127
5394,Caribou Coffee,restaurant,44.88944490000001,-93.309229
5397,Subway,restaurant,44.88385019999999,-93.3081966
5398,Prima,restaurant,44.905917,-93.2880338
5399,Jimmy John's,restaurant,44.88410699999999,-93.28759339999999
5400,Lunds & Byerlys Richfield,restaurant,44.8892177,-93.3095151
5401,Starbucks,restaurant,44.905214,-93.28808099999999
5402,Vina Vietnamese Restaurant,restaurant,44.886898,-93.277683
5403,McDonald's,restaurant,44.8819916,-93.2868594
5412,Fat Lorenzos,restaurant,44.90083539999999,-93.2476934
5414,Hot Plate,restaurant,44.90861109999999,-93.2527778
5417,Caribou Coffee,restaurant,44.9165714,-93.24692800000001
5422,McDonald's,restaurant,44.92837319999999,-93.2240667
5423,Pizza Hut,restaurant,44.9159957,-93.26290569999999
5440,Fresh Wok,restaurant,44.9193078,-93.2785462
5441,C & G's Smoking Barbeque,restaurant,44.9164578,-93.27761869999999
5442,Rincón 38,restaurant,44.9339871,-93.2842172
5443,Butter Bakery Cafe,restaurant,44.935704,-93.278207
5448,Hazel's Northeast,restaurant,45.0203318,-93.23685809999999
5450,Caribou Coffee,restaurant,45.0056685,-93.2280522
5453,Grumpy's Bar,restaurant,45.01011200000001,-93.261797
5454,Chimborazo,restaurant,45.02026619999999,-93.2471194
5455,Create Catering & The Dining Studio,restaurant,44.99924909999999,-93.2491908
5456,Subway,restaurant,45.0133063,-93.2469914
5457,Sen Yai Sen Lek Thai,restaurant,45.0128811,-93.2475825
5458,Village Pub,restaurant,45.0171431,-93.21814959999999
5459,Adelita's | Mexican Restaurant,restaurant,45.0124483,-93.24698950000001
5461,Chipotle Mexican Grill,restaurant,45.03885810000001,-93.2197565
5462,Que Viet Village House,restaurant,45.00996799999999,-93.23708460000002
5463,Khao Hom Thai Restaurant Minneapolis,restaurant,45.0125824,-93.247091
5482,Caribou Coffee,restaurant,44.91946119999999,-93.2783729
5502,Normandy Kitchen,restaurant,44.9733333,-93.2675
5507,Surly Brewing Co.,restaurant,44.9729768,-93.20981830000001
5511,Punch Pizza Stadium Village,restaurant,44.97348030000001,-93.22674889999999
5512,Sally's Saloon,restaurant,44.973503,-93.228478
5514,Chick-fil-A,restaurant,44.97280860000001,-93.2354014
5515,Al's Breakfast,restaurant,44.9810593,-93.2356508
5518,Hard Times Cafe,restaurant,44.96958899999999,-93.24622699999999
5519,Bruegger's Bagels,restaurant,44.97352679999999,-93.22730899999999
5520,Chipotle Mexican Grill,restaurant,44.972994,-93.24697929999999
5521,Subway,restaurant,44.9671025,-93.2370151
5522,Hong Kong Noodle,restaurant,44.9738022,-93.2254267
5532,Subway,restaurant,44.9783179,-93.2613567
5545,Buca di Beppo Italian Restaurant,restaurant,44.8973354,-93.17679
5560,Jimmy John's,restaurant,44.91818229999999,-93.1846183
5562,Domino's Pizza,restaurant,44.91778419999999,-93.2158908
5563,Crystal Garden,restaurant,44.918143,-93.216251
5574,Gandhi Mahal Restaurant,restaurant,44.9625259,-93.22717109999999
5577,Tracy's Saloon & Eatery,restaurant,44.96260710000001,-93.24053529999999
5580,Acadia,restaurant,44.97023679999999,-93.2469862
5581,Pizza Luce,restaurant,44.9629454,-93.2405249
5600,Subway,restaurant,44.917581,-93.21566279999999
5602,BaGu Sushi & Thai,restaurant,44.916414,-93.2623059
5603,Lake Nokomis Community Center,restaurant,44.9115,-93.243102
5628,Subway,restaurant,44.9983051,-93.28678699999999
5630,Little Caesars Pizza,restaurant,44.99919999999999,-93.29115
5631,Popeyes Louisiana Kitchen,restaurant,44.9989497,-93.29748169999999
5632,Taco Bell,restaurant,44.99877819999999,-93.2852304
5634,Broadway Pizza,restaurant,44.99974539999999,-93.2778967
5636,Borough,restaurant,44.9889226,-93.2781953
5637,Dough Institute,restaurant,44.9991989,-93.2716102
5638,Olympic Cafe #2,restaurant,45.00336739999999,-93.30783919999999
5639,Jonah’s Cajun seafood,restaurant,44.9992612,-93.2845999
5640,Broadway Pub & Grille,restaurant,44.9993073,-93.2805283
5641,Holiday Stationstores,restaurant,44.9958536,-93.28108170000002
5642,Wendy's,restaurant,44.99875040000001,-93.2846627
5643,Pryes Brewing Company,restaurant,44.99355469999999,-93.2762307
5645,Edina Grill,restaurant,44.9117775,-93.3292511
5647,Red Cow 50th & France,restaurant,44.9126985,-93.3261084
5649,The Harriet Brasserie,restaurant,44.9246384,-93.3139114
5650,Convention Grill,restaurant,44.92180099999999,-93.32965399999999
5651,Salut Bar Americain,restaurant,44.9115511,-93.3292061
5652,Tilia,restaurant,44.9246358,-93.3141271
5653,Cave Vin,restaurant,44.90187889999999,-93.31848169999999
5654,Zumbro Cafe,restaurant,44.92454949999999,-93.3150708
5655,Raku,restaurant,44.912143,-93.3304708
5656,The Hilltop,restaurant,44.911028,-93.352153
5657,Subway,restaurant,44.912145,-93.3261789
5659,Lunds & Byerlys 50th Street Edina,restaurant,44.91164709999999,-93.3308058
5661,Arezzo Ristorante,restaurant,44.910863,-93.32871600000001
5663,Beaujo's Wine Bar & Bistro,restaurant,44.9127704,-93.32934859999999
5682,J.D. Hoyt's Supper Club,restaurant,44.9844648,-93.2728834
5683,The Monte Carlo,restaurant,44.9847374,-93.2717282
5703,Modern Times,restaurant,44.9446238,-93.2628515
5710,The Loop - Minneapolis,restaurant,44.9872972,-93.2761201
5716,Cuppa Java,restaurant,44.973487,-93.3084885
5718,Cuzzy's Grill & Bar,restaurant,44.9861979,-93.2751966
5719,Darby's Pub & Grill,restaurant,44.9848278,-93.27631
5721,Bryn Mawr Pizza & Deli,restaurant,44.9737316,-93.3086608
5723,D'Amico & Partners,restaurant,44.980039,-93.2886784
5778,Subway,restaurant,44.9485733,-93.24098959999999
5799,Café and Bar Lurcat,restaurant,44.9712694,-93.28621389999999
5802,The Lowry,restaurant,44.9615287,-93.2926604
5803,Sneaky Pete's,restaurant,44.9800663,-93.2729669
5805,Mill Valley Kitchen,restaurant,44.9406932,-93.32944189999999
5808,Punch Pizza Lake Street,restaurant,44.94936719999999,-93.3204621
5811,Lunds & Byerlys St. Louis Park,restaurant,44.93492370000001,-93.34721449999999
5814,yum! Kitchen and Bakery,restaurant,44.94861599999999,-93.33057
5815,Barbette,restaurant,44.948526,-93.30223149999999
5818,Stella's Fish Café & Prestige Oyster Bar,restaurant,44.9486544,-93.29727179999999
5820,Bunny's Bar & Grill,restaurant,44.9287622,-93.3551622
5822,Ben & Jerry’s,restaurant,44.9469242,-93.32235039999999
5860,Roat Osha,restaurant,44.94770310000001,-93.29714159999999
5863,The Pourhouse Uptown,restaurant,44.94914,-93.2966637
5871,Subway,restaurant,44.883889,-93.2489526
5873,Caribou Coffee,restaurant,44.8838654,-93.2498087
5879,China Garden Restaurant,restaurant,44.884484,-93.278559
5880,American Pie Pizza,restaurant,44.8841565,-93.2774215
5881,Popeyes Louisiana Kitchen,restaurant,44.8836687,-93.2827451
5909,Blue Door Pub St. Paul,restaurant,44.9467276,-93.17675299999999
5911,Caffe Biaggio,restaurant,44.9631881,-93.1968231
5920,Egg and I,restaurant,44.9660005,-93.20420659999999
5922,Fortune Wok,restaurant,44.95668440000001,-93.17632069999999
5943,Broders' Cucina Italiana,restaurant,44.912549,-93.309125
6003,Pair of Dice Pizza,restaurant,45.0093323,-93.3149923
6061,Gorkha Palace,restaurant,44.9892766,-93.2550617
6119,Darbar India Grill & Bar,restaurant,44.94818999999999,-93.295003
6122,Uptown Tavern & Rooftop,restaurant,44.9493637,-93.2974091
6123,Uptown Diner,restaurant,44.9557434,-93.2970544
6157,Wicked Wort Brewing Company,restaurant,45.0309176,-93.3392027
6158,Holiday Stationstores,restaurant,45.01999620000001,-93.34789289999999
6159,El Toro Mexican restaurant,restaurant,45.0296739,-93.33684350000001
6160,Robbinsdale Town Center,restaurant,45.0289302,-93.3353315
6163,Mai Thai Restaurant,restaurant,45.0251271,-93.3309215
6167,Shoyu,restaurant,44.8822667,-93.2119444
6180,Sassy Spoon,restaurant,44.9121495,-93.2227103
6181,Five Guys,restaurant,44.883969,-93.24833819999999
6182,ie - Italian Eatery,restaurant,44.9172049,-93.24776179999999
6183,Panda Express,restaurant,44.883877,-93.25058899999999
6259,NE Moose Bar & Grill,restaurant,44.9948258,-93.2529192
6261,The Anchor Fish & Chips,restaurant,45.0007658,-93.2643461
6316,Market to Go,restaurant,44.88361680000001,-93.2143741
6317,La Tapenade Mediterranean Café,restaurant,44.8834429,-93.214355
6319,McDonald's,restaurant,44.8849315,-93.2103731
6320,Ike's Food & Cocktails,restaurant,44.8846078,-93.2107869
6321,La Tapenade MSP,restaurant,44.88350260000001,-93.2141786
6322,Dunkin',restaurant,44.8836628,-93.21124309999999
6323,Vino Volo,restaurant,44.8835656,-93.207471
6334,Mesa Pizza Dinkytown,restaurant,44.98087599999999,-93.2361021
6336,Annie's Parlour,restaurant,44.98,-93.2365583
6337,Shuang Cheng,restaurant,44.9805708,-93.2363797
6338,Station 280,restaurant,44.9878148,-93.2065805
6341,Manning's Cafe,restaurant,44.9877495,-93.221344
6360,Maria's Cafe,restaurant,44.9625934,-93.25766480000001
6363,Midori's Floating World Cafe,restaurant,44.9626309,-93.2412162
6374,The Kenwood Restaurant,restaurant,44.96164679999999,-93.3079693
6380,Amore Uptown,restaurant,44.94821329999999,-93.3022561
6391,Rojo Mexican Grill,restaurant,44.9672667,-93.3479722
6394,Good Day Cafe,restaurant,44.9713106,-93.3481888
6395,Liquor Lyle's,restaurant,44.962066,-93.29165379999999
6399,Tao Organic Cafe + Herbery,restaurant,44.9608148,-93.29330329999999
6400,Namaste Cafe,restaurant,44.9568743,-93.2961
6401,Rinata Restaurant,restaurant,44.9575651,-93.29510789999999
6509,The Cheesecake Factory,restaurant,44.87971700000001,-93.32495639999999
6511,Panda Express,restaurant,44.88115759999999,-93.3251866
6513,Patrick's Bakery & Cafe,restaurant,44.8849936,-93.31738299999999
6527,Good Earth,restaurant,44.87690380000001,-93.3255429
6530,GALLERIA,restaurant,44.87668069999999,-93.3284242
6534,CRAVE American Kitchen & Sushi Bar (The Galleria - Edina),restaurant,44.8769935,-93.3268908
6536,Pittsburgh Blue Steakhouse,restaurant,44.8768347,-93.32367230000001
6537,The Original Pancake House,restaurant,44.8757972,-93.3256722
6538,P.F. Chang's,restaurant,44.87961459999999,-93.32478619999999
6540,McCormick & Schmick's Seafood & Steaks,restaurant,44.8776543,-93.32195569999999
6541,Caribou Coffee,restaurant,44.8810765,-93.32553879999999
6542,Big Bowl,restaurant,44.877519,-93.3277468
6671,Culver's,restaurant,45.04150849999999,-93.2189489
6676,Jimmy's Pro Billiards,restaurant,45.0421209,-93.24765959999999
6682,Caribou Coffee,restaurant,45.0392742,-93.22019329999999
6683,El Taco Riendo,restaurant,45.0126915,-93.2475766
6738,McDonald's,restaurant,44.99916289999999,-93.2637963
6759,Jasmine Thai,restaurant,45.036493,-93.247636
6760,Hooks Fish & Chicken,restaurant,45.0381042,-93.2477506
6762,The Chevy Grille,restaurant,45.0367452,-93.24679669999999
6781,Tasty Pizza - Hangar 45,restaurant,45.05044669999999,-93.2501068
6782,Dong Yang Oriental Food,restaurant,45.0502778,-93.25166670000002
6783,Pizza Man,restaurant,45.0421098,-93.2459324
6845,Colossal Cafe,restaurant,44.9826139,-93.19580280000001
6848,Finnish Bistro Coffee & Cafe,restaurant,44.98151599999999,-93.19507399999999
6850,STOUT'S PUB & GRILL,restaurant,44.99222049999999,-93.168254
6854,Turf Club,restaurant,44.9559821,-93.1679952
6856,Tea House Chinese Restaurant,restaurant,44.9738222,-93.22143059999999
6858,Caribou Coffee,restaurant,44.97412639999999,-93.22483679999999
6859,U Garden Restaurant And Event Center,restaurant,44.97217939999999,-93.2171936
6860,Chipotle Mexican Grill,restaurant,44.9734364,-93.2268814
6861,Mirror of Korea,restaurant,44.96394289999999,-93.1675357
6863,Foxy Falafel,restaurant,44.96520410000001,-93.19774029999999
6865,CHIANTI GRILL Italian Restaurant,restaurant,45.00290589999999,-93.16559409999999
6866,Gabe's By The Park,restaurant,44.971047,-93.14725299999999
6867,Subway,restaurant,45.0055441,-93.1653151
6868,Keys Cafe & Bakery,restaurant,44.992221,-93.1456593
6869,Perkins Restaurant & Bakery,restaurant,45.0066096,-93.1627737
6870,Caribou Coffee,restaurant,44.99270169999999,-93.1476206
6871,Original Malt Shop,restaurant,44.9927259,-93.1474997
6872,Old Chicago,restaurant,45.00509599999999,-93.16564
6874,House of Wong,restaurant,44.99275859999999,-93.1480826
6875,Kyoto Sushi,restaurant,45.00566,-93.16406479999999
6876,Black Sea,restaurant,44.9634616,-93.16727030000001
6877,"Dino''s Gyros: Falcon Heights, MN",restaurant,44.99259139999999,-93.1661031
6878,Papa Murphy's | Take 'N' Bake Pizza,restaurant,44.9946212,-93.1470248
6879,Maverick's Real Roast Beef,restaurant,44.99426439999999,-93.14548839999999
6880,Nelson Cheese & Deli,restaurant,44.9770869,-93.166282
6881,KFC,restaurant,45.0039617,-93.1674109
6882,Domino's Pizza,restaurant,44.9677868,-93.1523117
6883,Smashburger,restaurant,45.0027371,-93.16297879999999
6884,Tracks Bar & Grill,restaurant,44.9740923,-93.106231
6885,Little Szechuan Hot Pot,restaurant,44.95547819999999,-93.1173518
6886,Subway,restaurant,44.99130030000001,-93.0878599
6887,Caribou Coffee,restaurant,44.9929919,-93.1054911
6888,Keys Cafe & Bakery,restaurant,44.9511279,-93.0942067
6889,Mama's Pizza,restaurant,44.9703407,-93.1061325
6890,Peking Garden,restaurant,44.955485,-93.1165803
6891,Tin Cup's,restaurant,44.97808149999999,-93.10560269999999
6892,McDonald's,restaurant,44.9555124,-93.1099029
6893,COOK ST PAUL,restaurant,44.9751402,-93.0731852
6894,D&J Fish and Chicken,restaurant,44.9932094,-93.1047815
6895,John's Pizza Cafe,restaurant,44.96976799999999,-93.1259056
6896,McDonald's,restaurant,44.98770609999999,-93.1062085
6897,Black Sheep Coal Fired Pizza,restaurant,44.9512695,-93.09433849999999
6898,Subway,restaurant,44.9559805,-93.125334
6899,Yarusso Bros Italian Restaurant,restaurant,44.96086929999999,-93.0773488
6900,Bangkok Thai Deli,restaurant,44.956042,-93.11393699999999
6901,Subway,restaurant,44.96831289999999,-93.06650839999999
6902,Sawatdee Saint Paul,restaurant,44.9507102,-93.09375329999999
6903,Subway,restaurant,44.9698668,-93.1065419
6905,Pizza Luce,restaurant,44.946881,-93.1502369
6909,Shish,restaurant,44.9399697,-93.1706473
6911,On's Kitchen Thai Cuisine,restaurant,44.9559,-93.1684528
6912,Buffalo Wild Wings,restaurant,44.9437141,-93.1659047
6917,Caribou Coffee,restaurant,44.93947170000001,-93.1664239
6919,Pad Thai Restaurant,restaurant,44.9402347,-93.1712323
6920,Taco Bell,restaurant,44.9582028,-93.16740449999999
6922,Green Mill Restaurant & Bar,restaurant,44.9396193,-93.1570643
6923,Neighborhood Cafe,restaurant,44.9463889,-93.1663889
6924,Cafe Latte,restaurant,44.939763,-93.13620159999999
6925,The Nook,restaurant,44.92657029999999,-93.1566689
6929,Salut Bar Americain,restaurant,44.9403754,-93.1382588
6932,Everest on Grand,restaurant,44.93983900000001,-93.15407599999999
6933,Chipotle Mexican Grill,restaurant,44.9402528,-93.13656639999999
6936,Punch Pizza Grand Avenue,restaurant,44.9401667,-93.1326667
6937,Dixie's On Grand,restaurant,44.9401459,-93.1295976
6939,The Uptowner Cafe on Grand,restaurant,44.9398267,-93.14681910000002
6942,Jimmy John's,restaurant,44.9400874,-93.14138469999999
6946,Axel's Restaurant Mendota,restaurant,44.8880961,-93.1613747
6948,Summit Brewing Company,restaurant,44.914066,-93.139609
6949,Lucky's 13 Pub,restaurant,44.88738,-93.16376299999999
6953,Famous Dave's Bar-B-Que,restaurant,44.91053,-93.151706
6954,Subway,restaurant,44.9020072,-93.171926
6958,Joan's in the Park,restaurant,44.9225714,-93.16739849999999
6959,McDonald's,restaurant,44.9040912,-93.1643802
6960,Osteria I Nonni,restaurant,44.90015200000001,-93.139267
6962,Buongiorno Deli,restaurant,44.900165,-93.139235
6963,Carbones Pizza,restaurant,44.9268314,-93.171904
6964,"Kincaid''s Fish, Chop & Steakhouse",restaurant,44.94558310000001,-93.0957564
6965,The St. Paul Grill,restaurant,44.94503780000001,-93.0958654
6966,Downtowner Woodfire Grill,restaurant,44.94295210000001,-93.1052138
6967,Burger Moe's,restaurant,44.9427452,-93.10462509999999
6968,Patrick McGovern's Pub,restaurant,44.9433876,-93.1045553
6969,Mickey's Diner,restaurant,44.94734799999999,-93.09811140000001
6970,Mancini’s Char House,restaurant,44.9368542,-93.1137169
6971,Meritage,restaurant,44.9463889,-93.0966667
6972,El Burrito Mercado,restaurant,44.929967,-93.077473
6973,The Liffey Irish Pub,restaurant,44.94440839999999,-93.1034717
6974,Boca Chica | Restaurante Mexicano & Cantina,restaurant,44.9337487,-93.083646
6975,Chipotle Mexican Grill,restaurant,44.94545240000001,-93.095395
6976,Barrio,restaurant,44.9500792,-93.08816150000001
6977,Sakura Restaurant & Bar,restaurant,44.9445308,-93.0948639
6978,Lobby Bar at The Saint Paul Hotel,restaurant,44.94482120000001,-93.0960812
6979,Alary's Bar,restaurant,44.9502058,-93.0926362
6980,Black Dog Cafe,restaurant,44.9491328,-93.08390759999999
6982,Asian Express,restaurant,44.9475408,-93.0918374
6983,Starbucks,restaurant,44.94543699999999,-93.095281
6986,The Gnome Craft Pub,restaurant,44.9463854,-93.1210151
6988,W. A. Frost and Company,restaurant,44.94642280000001,-93.1158342
6992,La Grolla,restaurant,44.9464254,-93.1192837
6997,Tavern on Grand,restaurant,44.9397175,-93.1277513
6998,Moscow on the Hill,restaurant,44.94676339999999,-93.11558099999999
7083,The Buttered Tin,restaurant,44.95102350000001,-93.08887109999999
7084,Little Caesars Pizza,restaurant,44.967644,-93.06554
7095,The Bulldog Lowertown,restaurant,44.9501447,-93.08804479999999
7096,Burger King,restaurant,44.958552,-93.07342799999999
7097,Great Dragon Chinese Restaurant,restaurant,44.9680031,-93.0665107
7102,Subway,restaurant,44.9771114,-93.04464019999999
7103,Jimmy John's,restaurant,44.9520838,-93.09368780000001
7104,Little Oven,restaurant,44.96288699999999,-93.025092
7106,Subway,restaurant,44.95289159999999,-93.0247614
7107,Angelo's Pizza,restaurant,44.9916667,-93.0244444
7108,Little Caesars Pizza,restaurant,44.99211,-93.02498
7109,White Castle,restaurant,44.9898724,-93.0256004
7110,Red's Savoy Pizza,restaurant,44.95708640000001,-93.02496839999999
7112,Subway,restaurant,44.9922727,-93.024463
7113,Popeyes Louisiana Kitchen,restaurant,44.95074259999999,-93.02738029999999
7115,Ho Ho Gourmet,restaurant,44.9526835,-93.0163387
7116,Pizza Hut,restaurant,44.9923876,-93.0256552
7117,Innate Foods,restaurant,44.9809807,-93.01832569999999
7118,5-8 Tavern & Grill,restaurant,44.9634112,-93.00367759999999
7119,Los Ocampo Restaurant and Bar,restaurant,44.950375,-93.0262245
7120,Dari-ette Drive-In,restaurant,44.96294269999999,-93.0398663
7121,Ari’s Best Steak House,restaurant,44.9917309,-93.0246205
7122,Nino's Pizzeria,restaurant,44.9923498,-93.0055165
7123,Cherry Pit,restaurant,44.9634233,-93.02554889999999
7133,Obb's Sports Bar & Grill,restaurant,44.948877,-93.0431521
7138,Arby's,restaurant,44.94820129999999,-93.0926764
7142,Subway,restaurant,44.9485076,-93.0927172
7143,Subway,restaurant,44.9470034,-93.09298199999999
7144,Sonic Drive-In,restaurant,44.9494404,-93.0175829
7145,Taco Bell,restaurant,44.9494149,-93.0181231
7147,McDonald's,restaurant,44.9502516,-93.02246869999999
7149,Tea House St. Paul,restaurant,44.9508392,-93.02967590000002
7150,Holiday Stationstores,restaurant,44.93264449999999,-93.00419830000001
7151,Mei Mei Chinese Restaurant,restaurant,44.932489,-93.005332
7152,McKnight's Kitchen & Tap,restaurant,44.9491827,-93.0064187
7153,Davanni's Pizza & Hot Hoagies,restaurant,44.95028809999999,-93.0244666
7154,Holiday Stationstores,restaurant,44.9522205,-93.0256137
7155,Wendy's,restaurant,44.9499953,-93.0231419
7156,Arby's,restaurant,44.950031,-93.023895
7157,Gurey Deli,restaurant,44.93240759999999,-93.0048803
7158,Dependable Angels Homecare LLC,restaurant,44.9127441,-93.0025988
7177,Khyber Pass Cafe,restaurant,44.940226,-93.16637469999999
7179,Vertical Endeavors–Minneapolis,school,44.95616520000001,-93.2787182
7180,Cristo Rey Jesuit High School Twin Cities,school,44.9492686,-93.27110909999999
7181,Greeley School,school,44.95539340000001,-93.2572603
7182,Brainco-The Minneapolis School of Advertising and Design,school,44.9553441,-93.27367509999999
7183,Parent Warmline-Minneapolis,school,44.95668089999999,-93.26194029999999
7184,Merc School,school,44.9559532,-93.28262579999999
7185,Irving School,school,44.9524725,-93.25044659999999
7186,Madison School,school,44.96774310000001,-93.26828060000001
7187,Andersen United Community School,school,44.9535636,-93.2581939
7188,Adams School,school,44.9635478,-93.25188779999999
7189,Augsburg Fairview Academy,school,44.957124,-93.2640517
7190,City of Lakes Waldorf School,school,44.959356,-93.27838659999999
7191,Andersen Elementary School,school,44.9529506,-93.25879049999999
7192,Essence Of Prodigy,school,44.9481025,-93.2888473
7193,Loring Nicollet School,school,44.962908,-93.26233099999999
7194,Richard R. Green Central Park Elementary School,school,44.940284,-93.27049400000001
7195,Emerson Spanish Immersion,school,44.9682529,-93.2804462
7196,Hope Academy,school,44.9600547,-93.2632654
7197,Wellstone International High School,school,44.9419693,-93.2622201
7198,Central do Brasil,school,44.9485816,-93.2629432
7199,DeLaSalle High School,school,44.9866539,-93.26310819999999
7200,Capella University,school,44.97642750000001,-93.2687053
7201,Kinderberry Hill Child Development Center,school,44.9783747,-93.27171349999999
7202,Dermalogica,school,44.9893914,-93.2784611
7203,New Horizon Academy,school,44.9826458,-93.2650986
7204,Marcy Open Elementary School,school,44.986641,-93.25015010000001
7205,MacPhail Center For Music,school,44.9795493,-93.26043960000001
7206,Washington School,school,44.9737678,-93.2607329
7208,Aspen Limo and Car Services - Minneapolis,school,44.976026,-93.272453
7209,IPR - College of Creative Arts,school,44.98215099999999,-93.2720947
7210,The Cradle Club,school,44.980476,-93.2751959
7211,Holmes School,school,44.9871878,-93.25050250000001
7213,Matrix Learning Designs,school,44.9847781,-93.2758826
7214,El Diablo Amps & Guitars,school,44.98824659999999,-93.2542521
7215,Child Garden Montessori,school,44.9737619,-93.28612969999999
7216,The Family Partnership,school,44.9735218,-93.26681049999999
7217,"The FAIR School, Downtown Campus",school,44.9757723,-93.27757729999999
7218,Bright Horizons,school,44.974549,-93.2756891
7230,Seward Montessori School,school,44.9604272,-93.2307818
7236,P.E.A.S.E. Academy,school,44.983514,-93.2358098
7238,Sheridan School,school,44.99899970000001,-93.2625305
7239,Patrick Henry High School,school,45.034328,-93.30532099999999
7240,Brooklyn Center Elementary,school,45.062777,-93.30009799999999
7241,Bright Water Montessori School,school,45.04838729999999,-93.2961697
7242,Shingle Creek School,school,45.0466638,-93.3069896
7243,Brooklyn Center High School,school,45.0738661,-93.2976911
7244,Olson Middle School,school,45.046522,-93.3010377
7245,Smile international learning center,school,45.06217719999999,-93.32579890000001
7246,Schmitt Music,school,45.0735015,-93.312088
7247,Minnesota State High School,school,45.073944,-93.3074074
7248,Sojourner Truth Academy,school,45.0244373,-93.29400050000001
7249,Jenny Lind Elementary School,school,45.04674139999999,-93.2924766
7250,"Laugh, Love and Learn Child Care",school,45.047097,-93.3128385
7251,Jardín De Niños Bilingüe Montessori,school,45.04865179999999,-93.29311059999999
7252,Performance Peaks,school,45.0375317,-93.3204777
7253,Northstar Academy,school,45.0468371,-93.3077625
7254,Olson Junior High School,school,45.04663180000001,-93.3010604
7255,New Millennium Academy,school,45.0481178,-93.3234157
7256,Rosette Guitar Products,school,45.0373966,-93.3081115
7257,Headway Emotional Health Services,school,45.0630504,-93.3118744
7258,Big Picture Twin Cities,school,45.06325529999999,-93.32615229999999
7261,South High School,school,44.9454962,-93.244565
7268,Title One,school,44.9477072,-93.2392721
7277,Anishinabe Academy,school,44.9526359,-93.2255472
7281,Broadway High School,school,44.9996696,-93.2966439
7282,Best Academy East,school,44.9847478,-93.29675379999999
7283,Four Directions Charter School,school,44.9989345,-93.2948084
7284,The Blake School,school,44.96967300000001,-93.293914
7288,Anwatin Middle School,school,44.9735492,-93.3164274
7289,Bryn Mawr Elementary School,school,44.9741558,-93.3164434
7290,Hay School,school,44.9885697,-93.3076303
7291,Douglas School,school,44.9632853,-93.2940335
7294,Bethune Community School,school,44.9876729,-93.2947719
7297,Nellie Stone Johnson School,school,45.00698939999999,-93.29023409999999
7311,Ultimate Fit Golf LLC,school,45.0498544,-93.2664283
7312,Prodeo Academy - Columbia Heights,school,45.04394780000001,-93.26204179999999
7314,KIPP North Star - Minnesota,school,45.0467506,-93.3076806
7316,Loring Elementary School,school,45.0359989,-93.3135523
7317,Centerbrook Golf Course,school,45.0548976,-93.3137435
7320,Lucy Laney at Cleveland Park Community School,school,45.0157691,-93.30907529999999
7323,Robbinsdale Middle School,school,45.0233344,-93.3461049
7326,Jordan Junior High School,school,45.0105244,-93.29809879999999
7335,New Horizon Academy,school,45.0166154,-93.3078479
7336,Northport Elementary School,school,45.05473749999999,-93.3256682
7345,Schiller School,school,45.0152432,-93.2696701
7356,Peabody Enterprises,school,45.013832,-93.2815093
7357,Spero Academy,school,45.0174812,-93.2685753
7363,East Side Neighborhood Services Inc,school,45.0055556,-93.2669444
7365,Prescott School,school,45.0129903,-93.24431589999999
7367,Yinghua Academy,school,45.00459439999999,-93.2403405
7370,Early Childhood Family,school,45.00059299999999,-93.26221500000001
7371,Parents In Community Action,school,45.0006874,-93.26235849999999
7372,Menlo Park Alternative School,school,45.005786,-93.2663842
7373,Elizabeth Hall School,school,44.99591849999999,-93.2899125
7375,Lowry School,school,45.01945939999999,-93.2375117
7399,Minnehaha Academy - High School,school,44.94525549999999,-93.2051896
7400,Roosevelt High School,school,44.92959,-93.2300461
7402,Sanford Middle School,school,44.9387056,-93.213475
7405,Northrop Elementary School,school,44.924452,-93.2265492
7406,Minnehaha Academy - Elementary and Middle School,school,44.92634399999999,-93.2045946
7407,Folwell School - Performing Arts Magnet,school,44.9371453,-93.2429222
7408,Dowling Elementary School,school,44.93233149999999,-93.2039654
7409,Sunny Hollow Montessori School,school,44.92263429999999,-93.19658749999999
7410,Nativity of Our Lord Elem School,school,44.9321701,-93.1806402
7411,Jardín Spanish Immersion Academy,school,44.933125,-93.223602
7412,MTS Secondary School,school,44.9502839,-93.23766049999999
7414,Transition Plus School,school,44.9482597,-93.24304649999999
7415,Nativity Early Learning Center,school,44.9313627,-93.1807949
7416,Saint Mark's Preschool,school,44.9476721,-93.1833791
7417,Shower of Blessings Church,school,44.945274,-93.2144139
7418,The Seminaries of Saint Paul,school,44.9401969,-93.1965627
7421,Minnesota Internship Center Sabathani Campus,school,44.93438469999999,-93.27203759999999
7423,Bryant Junior High School,school,44.9347938,-93.2721538
7424,Agassiz School,school,44.93438769999999,-93.2859903
7425,Clara Barton Open School,school,44.92548979999999,-93.2913844
7427,Lake Country School,school,44.9343411,-93.28253099999999
7428,Twin Town Guitars,school,44.9411352,-93.28853339999999
7429,McKnight Early Childhood Family Development Center,school,44.925946,-93.271448
7430,Field Community School,school,44.91866519999999,-93.27003979999999
7431,Judson Preschool,school,44.92835660000001,-93.2852844
7432,Southside Family Charter School,school,44.92053850000001,-93.2719583
7435,Risen Christ Catholic School,school,44.93639570000001,-93.2578126
7437,Hiawatha College Prep - Kingfield,school,44.933668,-93.28347199999999
7441,Hiawatha Leadership Academy - Morris Park,school,44.9021465,-93.21718659999999
7449,Highland Park Elementary School,school,44.9140238,-93.1705839
7450,Simple Gifts Piano,school,44.9075686,-93.2155023
7451,St. Helena's Discovery Center,school,44.9236678,-93.22506519999999
7452,Saint Leo School,school,44.9163825,-93.1852479
7453,New Horizon Academy,school,44.918224,-93.1835962
7454,Keewaydin Elementary School,school,44.9083574,-93.2289624
7455,St. Kates,school,44.9247556,-93.1819422
7456,Siddha Yoga Meditation Center,school,44.92633550000001,-93.180084
7457,Bruce MINOR,school,44.92669319999999,-93.232586
7458,Horace Mann School,school,44.92115819999999,-93.18539129999999
7459,Academy of Holy Angels,school,44.88286769999999,-93.2808408
7460,Fraser School,school,44.8879458,-93.3101666
7461,Anthony Middle School,school,44.89846199999999,-93.29895100000002
7462,Burroughs Elementary School,school,44.9117193,-93.3005704
7463,Partnership Academy,school,44.8850139,-93.27846319999999
7464,Central School,school,44.8730205,-93.28494649999999
7465,Mount Olivet Nursery School,school,44.9116556,-93.3019923
7466,Hale Elementary School,school,44.9061685,-93.2567911
7467,Mayflower Early Childhood Center,school,44.90411679999999,-93.2763935
7468,Armatage Montessori School,school,44.9005143,-93.3115095
7469,Kenny Elementary School,school,44.8988749,-93.29539799999999
7470,Windom Dual Spanish Immersion School,school,44.8965353,-93.2800118
7471,Sheridan Hills Elementary,school,44.8866839,-93.3130042
7473,Annunciation Catholic School (preK-8th grade),school,44.90462999999999,-93.28689
7474,Whitbeck Nursery School,school,44.88808299999999,-93.31024599999999
7476,Xperitas,school,44.8824247,-93.28655859999999
7477,Washburn High School,school,44.91330199999999,-93.28261309999999
7478,Our Lady of Peace Catholic School,school,44.90376639999999,-93.25835029999999
7490,Bancroft Elementary School,school,44.9334291,-93.2555094
7492,Awake In Life,school,44.9110779,-93.24891459999999
7495,Green Earth Children's Academy,school,44.92826569999999,-93.2343834
7496,Grant Shafranski Golf Academy at Hiawatha,school,44.92045,-93.24398699999999
7498,Hiawatha Leadership Academy - Northrop,school,44.9193741,-93.2504046
7519,Science of Spirituality Meditation Center Minneapolis/St. Paul,school,45.042589,-93.2490426
7520,Waite Park Elementary School,school,45.0301072,-93.2345818
7526,Step By Step Montessori Schools Of St Anthony,school,45.0159662,-93.2186842
7530,Klash Drums LLC,school,45.01331559999999,-93.2526475
7531,Columbia Heights/Fridley Adult,school,45.04359669999999,-93.2465213
7532,St. Anthony Middle School,school,45.02813339999999,-93.2143287
7533,College Admissions Partners-Helping Students Find the Right College,school,45.0084123,-93.23490029999999
7534,Columbia Golf Learning Center,school,45.0249152,-93.2574006
7535,Pillsbury Elementary School,school,45.0106682,-93.2337417
7537,Midwest School-Herbal Studies,school,45.0196219,-93.2355522
7538,Tanya's Tots,school,45.011035,-93.25216780000001
7558,Z's Keys,school,44.9210727,-93.27048459999999
7570,Jefferson Community School,school,44.95575279999999,-93.29461669999999
7581,2nd Swing Golf - Minneapolis,school,44.9913377,-93.2181993
7584,Newgate School,school,44.9909658,-93.211968
7585,Pratt Elementary School,school,44.9690294,-93.21399749999999
7587,Church Holy Trinity-St Anskar,school,44.980374,-93.23833929999999
7589,Miniapple International Montessori Schools,school,44.98295,-93.237775
7591,Murray Middle School,school,44.98475550000001,-93.193426
7592,Special School District N1,school,44.98676,-93.2499034
7593,School of Nursing,school,44.973427,-93.23102999999999
7594,Supercomputing Institute,school,44.9752658,-93.2362724
7595,University KinderCare,school,44.9701756,-93.2221651
7597,University Catering,school,44.9728749,-93.2354641
7598,Tour Van - Minneapolis,school,44.99142699999999,-93.21841200000001
7632,Jie Ming Mandarin Immersion Academy,school,44.902156,-93.178986
7635,Highland Catholic School,school,44.916628,-93.185339
7636,Nokomis Neighborhood Preschool,school,44.9121385,-93.2281787
7637,Lubavitch Cheder Day School,school,44.9176305,-93.1745536
7638,Roosevelt Sr High School,school,44.9291823,-93.23032119999999
7641,United Theological Seminary,school,44.96283269999999,-93.2040399
7645,Chanson Voice & Music Academy,school,44.9652947,-93.1977578
7647,Avalon School,school,44.96226199999999,-93.19843139999999
7653,Minnesota Online High School,school,44.9625813,-93.19544909999999
7654,St Paul Public Schools,school,44.9593962,-93.1871118
7656,St Anthony Park Elementary,school,44.9780331,-93.1917562
7657,Volunteers of America,school,44.9630071,-93.2459686
7673,Minnehaha Area Child Care,school,44.89950400000001,-93.247884
7674,Headstart,school,44.91943369999999,-93.2526996
7675,"Krista Johnson, Music Teacher",school,44.897684,-93.24469490000001
7710,Loveworks Academy for Visual and Performing Arts,school,45.00145,-93.3221599
7711,Noble Elementary School,school,45.0060924,-93.33993889999999
7713,Mona H. Moede NELC ECFE,school,45.003273,-93.2974129
7714,Lighthouse Training Center,school,44.99839079999999,-93.286917
7715,Voice Teacher Mary Laymon,school,44.9979003,-93.2996709
7716,Plymouth Youth Center Middle School,school,45.0019538,-93.3063334
7717,"Les Jolies Petites School Dance, LJP Gymnastics, & LJP Costumes",school,44.99927419999999,-93.29451089999999
7718,Walker Creative Performance,school,45.0070059,-93.31235799999999
7719,Southwest High School,school,44.918504,-93.32476969999999
7720,South View Middle School #1,school,44.89977359999999,-93.34583219999999
7722,Lake Harriet United Methodist Church,school,44.913756,-93.324595
7725,Edina Public Schools,school,44.8995135,-93.3488754
7726,Fulton School,school,44.9138536,-93.3168926
7728,Lake Harriet Upper Elementary School,school,44.9135843,-93.31685929999999
7729,Dharma Field Zen Center,school,44.914438,-93.31986099999999
7732,St Peter's Lutheran School,school,44.90464890000001,-93.32832580000002
7734,Casa de Corazón,school,44.9104809,-93.32870030000001
7735,Linden Hills House of Music,school,44.92459150000001,-93.3153944
7736,Arthur Murray Dance Studio Minneapolis,school,44.91131499999999,-93.32870199999999
7737,Southwest KinderCare,school,44.92294500000001,-93.3271875
7738,Thai Yoga Bodywork,school,44.92317329999999,-93.3147534
7795,School Readiness Learning Academy,school,44.98481839999999,-93.29622479999999
7796,Parents In Community Action,school,44.98569140000001,-93.2971285
7866,Breck School,school,44.98110630000001,-93.3419831
7876,Kenwood Elementary School,school,44.96230159999999,-93.3077679
7897,Discoveries For Children Montessori Preschool & Daycare,school,44.9344692,-93.3510417
7898,"Rachel Allyn, PhD, Licensed Psychologist",school,44.9241008,-93.31452399999999
7943,Richfield's S.T.E.M. School,school,44.8757214,-93.259039
7949,Formless Form Qigong & Acupuncture,school,44.8821151,-93.2483843
7954,NeuLife Wellness,school,44.88312409999999,-93.24884809999999
7955,Richfield School,school,44.88297559999999,-93.2458541
7956,Richfield Dual Language School,school,44.8756625,-93.260719
8157,Grace Neighborhood Nursery,school,44.9523242,-93.2990791
8193,Ariella Approach,school,44.9431598,-93.2980333
8194,"Lorrie Ogren MA, LPCC, LPC",school,44.9459357,-93.2981191
8195,Lyndale School,school,44.9415519,-93.2839577
8196,CCP,school,44.94894689999999,-93.28647199999999
8197,Radiant Warrior Yoga,school,44.955766,-93.29768539999999
8198,New Horizon Academy,school,44.9481453,-93.2802001
8238,Hmong International Academy (PreK-8th),school,45.01067459999999,-93.2983168
8256,Wenonah Elementary School,school,44.9009304,-93.2383296
8257,The Music Lab,school,44.90903850000001,-93.25203760000001
8258,Bernie's Montessori School,school,44.88392590000001,-93.2588248
8391,Mandala Montessori,school,44.91580829999999,-93.2247221
8392,Approachable Music,school,44.906109,-93.22623399999999
8393,Capitol,school,44.8960242,-93.2015102
8394,Saint Kevin School,school,44.8966319,-93.2341117
8395,Green Earth Childrens Academy,school,44.9035047,-93.2348524
8396,Hennepin Middle School,school,44.9123585,-93.2267301
8397,KIDS DAYCARE,school,44.8995294,-93.2478737
8398,Saint Theresa School,school,44.8972107,-93.1827215
8416,W.I.S.E Charter School,school,44.99227109999999,-93.21148029999999
8417,American Workshop Construction Training Center,school,44.9908573,-93.23774329999999
8418,Neighborhood Children's House,school,45.013481,-93.23101
8439,Benilde-St. Margaret's,school,44.95821879999999,-93.3449885
8441,Hamline University - Minneapolis,school,44.9663873,-93.34555999999999
8442,St. Louis Park High School,school,44.9426369,-93.3625229
8446,Sr Abelson Aleph Pre School,school,44.95632330000001,-93.34536059999999
8453,Minnetonka Power Squadron,school,44.9465193,-93.3439291
8455,Bais Yaakov High School,school,44.9482033,-93.33665909999999
8458,Talmud Torah Minneapolis,school,44.96534569999999,-93.333912
8473,Stepping Stones Preschool,school,44.97858529999999,-93.3488723
8477,Meadowbrook Elementary School,school,44.97792399999999,-93.3480693
8478,"Room to Breathe, LLC.",school,44.9704979,-93.3139217
8594,Step By Step Montessori Schools Of Edina,school,44.8849314,-93.3217753
8598,Schmitt Music,school,44.88442359999999,-93.316735
8655,Amos and Celia Heilicher Minneapolis Jewish Day School,school,44.96534569999999,-93.333912
8658,New Horizon Academy,school,44.95787719999999,-93.29464639999999
8753,Northeast Middle School,school,45.0217289,-93.2339379
8754,Open Door Learning Center - Northeast,school,45.017171,-93.237881
8755,Northeast Center for Music,school,45.01717099999999,-93.2378813
8757,Southside Child Development Center,school,45.0133807,-93.24341260000001
8836,Janelle Klander,school,45.01612799999999,-93.26919
8920,Hmong College Prep Academy,school,44.975191,-93.164069
8923,School of Social Work,school,44.9834421,-93.18122389999999
8928,St Paul Public Schools,school,44.9747924,-93.1834564
8929,Great River School,school,44.970446,-93.155745
8933,MIT Charter School,school,44.975191,-93.164069
8934,Friends School of Minnesota,school,44.964673,-93.158452
8935,Minnesota School of Bartending,school,44.96418620000001,-93.19890559999999
8936,The Center for Mind-Body Oneness,school,44.96671990000001,-93.1995575
8937,Urban Boatbuilders,school,44.9617706,-93.19465389999999
8938,Children's Circle Preschool,school,44.97628,-93.198123
8939,Como Park Senior High,school,44.97576,-93.13139869999999
8940,St Paul Community Education,school,44.9758418,-93.131328
8941,Career and Life Transition Program Special Education,school,45.00370119999999,-93.1630905
8943,Roseville Lutheran Church,school,44.9999862,-93.1506898
8944,Metro Deaf School,school,44.972237,-93.1474612
8946,Twin Cities German Immersion School,school,44.975808,-93.14406699999999
8947,St Andrews School Cafeteria,school,44.97175999999999,-93.15326329999999
8951,Como Park Elementary School,school,44.9782704,-93.13344529999999
8953,Evening High School,school,44.95539730000001,-93.1512702
8954,Como Park Language and Arts Preschool and Childcare Center,school,44.9865412,-93.1571001
8955,Twin Cities Chinese Tutor,school,44.9906532,-93.1510718
8956,Kelly's Music Lessons,school,44.9895988,-93.154282
8957,Smol Beans,school,44.97680859999999,-93.1438164
8958,Como Guitar Academy,school,44.975275,-93.144402
8961,Washington Technology Magnet School,school,44.986526,-93.1106472
8962,Community School of Excellence,school,44.99119839999999,-93.1118233
8963,Crosswinds Middle School,school,44.9861142,-93.11059159999999
8964,Johnson Senior High School,school,44.98148739999999,-93.0671866
8965,Community of Peace Academy,school,44.9739357,-93.0805432
8966,City Academy,school,44.96988870000001,-93.0769207
8967,St. Paul City School - Primary School,school,44.9582555,-93.11115149999999
8968,Bruce F Vento Elementary School,school,44.9708968,-93.0829014
8969,NTI - Network Training Institute,school,44.9555198,-93.1149911
8970,New Horizon Academy,school,44.98033720000001,-93.106207
8971,Paul & Sheila Wellstone Elementary,school,44.9727725,-93.1107431
8972,Saint Agnes School,school,44.9599536,-93.1222796
